scrape_date,reit,community,address,market,unit_id,beds,baths,sqft,rent,move_in_date,lease_term,has_concession,concession_hardness,concession_raw,concession_type,concession_value,concession_pct_lease_value,concession_pct_lease_term,effective_monthly_rent,listing_url,first_seen,last_seen,state,city,latitude,longitude,floorplan_name,floor_level,rentcafe_property_id
2026-04-05,AMH,"Albuquerque, NM","2281 Solara Loop NE, Rio Rancho, NM, 87144","Albuquerque, NM",AMH-NM12393,3,2.5,2366,2340.0,2026-02-12,12 months,True,soft,"Special security deposit offer: Pay just 50% of your base rent as your security deposit (taxes and fees not included), valid for new applicants who sign a 12-month lease by April 30, 2026",,,,,,https://www.amh.com/query?criteria=Albuquerque%2C+NM,2026-04-05,2026-04-05,NM,Rio Rancho,35.278335,-106.683254,,,NM12393
2026-04-05,AMH,"Albuquerque, NM","6719 Piedra Quemada Road NW, Albuquerque, NM, 87114","Albuquerque, NM",AMH-NM12163,3,2.0,1700,2250.0,2026-04-03,12 months,True,soft,"Special security deposit offer: Pay just 50% of your base rent as your security deposit (taxes and fees not included), valid for new applicants who sign a 12-month lease by April 30, 2026",,,,,,https://www.amh.com/query?criteria=Albuquerque%2C+NM,2026-04-05,2026-04-05,NM,Albuquerque,35.190067,-106.729965,,,NM12163
2026-04-05,AMH,"Albuquerque, NM","3337 Cochiti Street NE, Rio Rancho, NM, 87144","Albuquerque, NM",AMH-NM12177,4,2.5,2650,2455.0,2025-08-11,12 months,True,soft,"Special security deposit offer: Pay just 50% of your base rent as your security deposit (taxes and fees not included), valid for new applicants who sign a 12-month lease by April 30, 2026",,,,,,https://www.amh.com/query?criteria=Albuquerque%2C+NM,2026-04-05,2026-04-05,NM,Rio Rancho,35.313438,-106.708481,,,NM12177
2026-04-05,AMH,"Albuquerque, NM","2044 Coba Road SE, Rio Rancho, NM, 87124","Albuquerque, NM",AMH-NM12387,4,3.0,2659,2520.0,2026-02-17,12 months,True,soft,"Special security deposit offer: Pay just 50% of your base rent as your security deposit (taxes and fees not included), valid for new applicants who sign a 12-month lease by April 30, 2026",,,,,,https://www.amh.com/query?criteria=Albuquerque%2C+NM,2026-04-05,2026-04-05,NM,Rio Rancho,35.237948,-106.695256,,,NM12387
2026-04-05,AMH,"Albuquerque, NM","6201 Capriccio Road NW, Albuquerque, NM, 87114","Albuquerque, NM",AMH-NM12238,3,2.0,1769,2265.0,2026-06-01,12 months,True,soft,"Special security deposit offer: Pay just 50% of your base rent as your security deposit (taxes and fees not included), valid for new applicants who sign a 12-month lease by April 30, 2026",,,,,,https://www.amh.com/query?criteria=Albuquerque%2C+NM,2026-04-05,2026-04-05,NM,Albuquerque,35.209043,-106.698958,,,NM12238
2026-04-05,AMH,"Albuquerque, NM","4910 Dolores Hidalgo Drive SE, Rio Rancho, NM, 87124","Albuquerque, NM",AMH-NM12043,3,2.0,1506,2245.0,2026-04-10,12 months,True,soft,"Special security deposit offer: Pay just 50% of your base rent as your security deposit (taxes and fees not included), valid for new applicants who sign a 12-month lease by April 30, 2026",,,,,,https://www.amh.com/query?criteria=Albuquerque%2C+NM,2026-04-05,2026-04-05,NM,Rio Rancho,35.24181,-106.642829,,,NM12043
2026-04-05,AMH,"Albuquerque, NM","6920 Brindisi Place NW, Albuquerque, NM, 87114","Albuquerque, NM",AMH-NM12232,3,2.5,1500,2285.0,2026-05-18,12 months,True,soft,"Special security deposit offer: Pay just 50% of your base rent as your security deposit (taxes and fees not included), valid for new applicants who sign a 12-month lease by April 30, 2026",,,,,,https://www.amh.com/query?criteria=Albuquerque%2C+NM,2026-04-05,2026-04-05,NM,Albuquerque,35.201493,-106.733086,,,NM12232
2026-04-05,AMH,"Albuquerque, NM","8419 Casa Morena Court NW, Albuquerque, NM, 87120","Albuquerque, NM",AMH-NM12229,3,2.0,1225,2010.0,2026-05-16,12 months,True,soft,"Special security deposit offer: Pay just 50% of your base rent as your security deposit (taxes and fees not included), valid for new applicants who sign a 12-month lease by April 30, 2026",,,,,,https://www.amh.com/query?criteria=Albuquerque%2C+NM,2026-04-05,2026-04-05,NM,Albuquerque,35.098862,-106.739494,,,NM12229
2026-04-05,AMH,"Albuquerque, NM","4981 Butte Place, Albuquerque, NM, 87120","Albuquerque, NM",AMH-NM12182,3,2.0,1255,2005.0,2026-05-10,12 months,True,soft,"Special security deposit offer: Pay just 50% of your base rent as your security deposit (taxes and fees not included), valid for new applicants who sign a 12-month lease by April 30, 2026",,,,,,https://www.amh.com/query?criteria=Albuquerque%2C+NM,2026-04-05,2026-04-05,NM,Albuquerque,35.141853,-106.717704,,,NM12182
2026-04-05,AMH,"Albuquerque, NM","709 Loma Pinon Loop, Rio Rancho, NM, 87144","Albuquerque, NM",AMH-NM12120,3,3.0,1893,2215.0,2026-04-25,12 months,True,soft,"Special security deposit offer: Pay just 50% of your base rent as your security deposit (taxes and fees not included), valid for new applicants who sign a 12-month lease by April 30, 2026",,,,,,https://www.amh.com/query?criteria=Albuquerque%2C+NM,2026-04-05,2026-04-05,NM,Rio Rancho,35.284099,-106.717497,,,NM12120
2026-04-05,AMH,"Albuquerque, NM","10319 Calle Dichoso Court NW, Albuquerque, NM, 87114","Albuquerque, NM",AMH-NM12442,4,2.5,2800,2870.0,2026-04-24,12 months,True,soft,"Special security deposit offer: Pay just 50% of your base rent as your security deposit (taxes and fees not included), valid for new applicants who sign a 12-month lease by April 30, 2026",,,,,,https://www.amh.com/query?criteria=Albuquerque%2C+NM,2026-04-05,2026-04-05,NM,Albuquerque,35.200295,-106.720017,,,NM12442
2026-04-05,AMH,"Albuquerque, NM","1232 Maple Meadows Drive, Rio Rancho, NM, 87144","Albuquerque, NM",AMH-NM12148,3,2.5,2043,2325.0,2026-04-16,12 months,True,soft,"Special security deposit offer: Pay just 50% of your base rent as your security deposit (taxes and fees not included), valid for new applicants who sign a 12-month lease by April 30, 2026",,,,,,https://www.amh.com/query?criteria=Albuquerque%2C+NM,2026-04-05,2026-04-05,NM,Rio Rancho,35.317346,-106.71098,,,NM12148
2026-04-05,AMH,"Albuquerque, NM","6609 Country Hills Court NW, Albuquerque, NM, 87114","Albuquerque, NM",AMH-NM12095,4,2.0,1724,2285.0,2026-04-10,12 months,True,soft,"Special security deposit offer: Pay just 50% of your base rent as your security deposit (taxes and fees not included), valid for new applicants who sign a 12-month lease by April 30, 2026",,,,,,https://www.amh.com/query?criteria=Albuquerque%2C+NM,2026-04-05,2026-04-05,NM,Albuquerque,35.202274,-106.728195,,,NM12095
2026-04-05,AMH,"Albuquerque, NM","1139 Northern Lights Way, Rio Rancho, NM, 87144","Albuquerque, NM",AMH-NM12119,3,2.0,1589,2125.0,2026-04-14,12 months,True,soft,"Special security deposit offer: Pay just 50% of your base rent as your security deposit (taxes and fees not included), valid for new applicants who sign a 12-month lease by April 30, 2026",,,,,,https://www.amh.com/query?criteria=Albuquerque%2C+NM,2026-04-05,2026-04-05,NM,Rio Rancho,35.303073,-106.71353,,,NM12119
2026-04-05,AMH,"Albuquerque, NM","7305 Bob White Lane NE, Albuquerque, NM, 87109","Albuquerque, NM",AMH-NM12083,3,2.5,1860,2410.0,2026-04-08,12 months,True,soft,"Special security deposit offer: Pay just 50% of your base rent as your security deposit (taxes and fees not included), valid for new applicants who sign a 12-month lease by April 30, 2026",,,,,,https://www.amh.com/query?criteria=Albuquerque%2C+NM,2026-04-05,2026-04-05,NM,Albuquerque,35.172556,-106.563727,,,NM12083
2026-04-05,AMH,"Atlanta, GA","2208 Sprucewood Drive, Acworth, GA, 30101","Atlanta, GA",AMH-GA15704,3,2.5,2031,2200.0,0001-01-01,12 months,True,soft,"Special security deposit offer: Pay just 50% of your base rent as your security deposit (taxes and fees not included), valid for new applicants who sign a 12-month lease by April 30, 2026",,,,,,https://www.amh.com/query?criteria=Atlanta%2C+GA,2026-04-05,2026-04-05,GA,Acworth,34.06194,-84.61318,,,GA15704
2026-04-05,AMH,"Atlanta, GA","887 Kendall Park Drive, Winder, GA, 30680","Atlanta, GA",AMH-GA12661,3,2.5,2029,1970.0,2026-02-05,12 months,True,soft,"Special security deposit offer: Pay just 50% of your base rent as your security deposit (taxes and fees not included), valid for new applicants who sign a 12-month lease by April 30, 2026",,,,,,https://www.amh.com/query?criteria=Atlanta%2C+GA,2026-04-05,2026-04-05,GA,Winder,33.955406,-83.780861,,,GA12661
2026-04-05,AMH,"Atlanta, GA","1134 Dunedin Trail, Woodstock, GA, 30188","Atlanta, GA",AMH-GA13036,3,2.5,1436,1920.0,2025-10-06,12 months,True,soft,"Special security deposit offer: Pay just 50% of your base rent as your security deposit (taxes and fees not included), valid for new applicants who sign a 12-month lease by April 30, 2026",,,,,,https://www.amh.com/query?criteria=Atlanta%2C+GA,2026-04-05,2026-04-05,GA,Woodstock,34.100868,-84.482338,,,GA13036
2026-04-05,AMH,"Atlanta, GA","230 McBee Place, Dallas, GA, 30132","Atlanta, GA",AMH-GA17452,4,2.5,2085,2145.0,2026-04-03,12 months,True,soft,"Special security deposit offer: Pay just 50% of your base rent as your security deposit (taxes and fees not included), valid for new applicants who sign a 12-month lease by April 30, 2026",,,,,,https://www.amh.com/query?criteria=Atlanta%2C+GA,2026-04-05,2026-04-05,GA,Dallas,33.92523,-84.846926,,,GA17452
2026-04-05,AMH,"Atlanta, GA","5231 Apple Grove Road, Buford, GA, 30519","Atlanta, GA",AMH-GA17759,3,2.5,2250,2025.0,2025-11-12,12 months,True,soft,"Special security deposit offer: Pay just 50% of your base rent as your security deposit (taxes and fees not included), valid for new applicants who sign a 12-month lease by April 30, 2026",,,,,,https://www.amh.com/query?criteria=Atlanta%2C+GA,2026-04-05,2026-04-05,GA,Buford,34.088202,-83.865531,,,GA17759
2026-04-05,AMH,"Atlanta, GA","324 Vinings Vintage Circle, Mableton, GA, 30126","Atlanta, GA",AMH-GA16018,4,2.5,2670,2825.0,0001-01-01,12 months,True,soft,"Special security deposit offer: Pay just 50% of your base rent as your security deposit (taxes and fees not included), valid for new applicants who sign a 12-month lease by April 30, 2026",,,,,,https://www.amh.com/query?criteria=Atlanta%2C+GA,2026-04-05,2026-04-05,GA,Mableton,33.801825,-84.542297,,,GA16018
2026-04-05,AMH,"Atlanta, GA","310 Hickory Pointe Loop, Dallas, GA, 30157","Atlanta, GA",AMH-GA21952,4,2.5,2481,2555.0,2026-03-20,12 months,True,soft,"Special security deposit offer: Pay just 50% of your base rent as your security deposit (taxes and fees not included), valid for new applicants who sign a 12-month lease by April 30, 2026",,,,,,https://www.amh.com/query?criteria=Atlanta%2C+GA,2026-04-05,2026-04-05,GA,Dallas,33.841061,-84.837493,,,GA21952
2026-04-05,AMH,"Atlanta, GA","545 Summit View Lane, Canton, GA, 30114","Atlanta, GA",AMH-GA19644,4,2.5,2098,2560.0,0001-01-01,12 months,True,soft,"Special security deposit offer: Pay just 50% of your base rent as your security deposit (taxes and fees not included), valid for new applicants who sign a 12-month lease by April 30, 2026",,,,,,https://www.amh.com/query?criteria=Atlanta%2C+GA,2026-04-05,2026-04-05,GA,Canton,34.264214,-84.459781,,,GA19644
2026-04-05,AMH,"Atlanta, GA","6105 Braidwood Court, Acworth, GA, 30101","Atlanta, GA",AMH-GA12294,5,3.5,3434,3225.0,2026-03-23,12 months,True,soft,"Special security deposit offer: Pay just 50% of your base rent as your security deposit (taxes and fees not included), valid for new applicants who sign a 12-month lease by April 30, 2026",,,,,,https://www.amh.com/query?criteria=Atlanta%2C+GA,2026-04-05,2026-04-05,GA,Acworth,33.971802,-84.730263,,,GA12294
2026-04-05,AMH,"Atlanta, GA","4369 Windmoor Drive NW, Kennesaw, GA, 30144","Atlanta, GA",AMH-GA13415,3,2.5,2386,2295.0,2026-02-13,12 months,True,soft,"Special security deposit offer: Pay just 50% of your base rent as your security deposit (taxes and fees not included), valid for new applicants who sign a 12-month lease by April 30, 2026",,,,,,https://www.amh.com/query?criteria=Atlanta%2C+GA,2026-04-05,2026-04-05,GA,Kennesaw,34.058659,-84.596313,,,GA13415
2026-04-05,AMH,"Atlanta, GA","1140 Victoria Walk Lane, Dacula, GA, 30019","Atlanta, GA",AMH-GA23639,5,3.0,3082,3035.0,2026-03-31,12 months,True,soft,"Special security deposit offer: Pay just 50% of your base rent as your security deposit (taxes and fees not included), valid for new applicants who sign a 12-month lease by April 30, 2026",,,,,,https://www.amh.com/query?criteria=Atlanta%2C+GA,2026-04-05,2026-04-05,GA,Dacula,33.952071,-83.900737,,,GA23639
2026-04-05,AMH,"Atlanta, GA","885 Headland Way, Canton, GA, 30114","Atlanta, GA",AMH-GA19794,5,3.0,2377,2670.0,2026-02-20,12 months,True,soft,"Special security deposit offer: Pay just 50% of your base rent as your security deposit (taxes and fees not included), valid for new applicants who sign a 12-month lease by April 30, 2026",,,,,,https://www.amh.com/query?criteria=Atlanta%2C+GA,2026-04-05,2026-04-05,GA,Canton,34.264128,-84.458826,,,GA19794
2026-04-05,AMH,"Atlanta, GA","4104 Dale Drive SE, Conyers, GA, 30013","Atlanta, GA",AMH-GA16736,4,2.5,1829,2070.0,2026-03-24,12 months,True,soft,"Special security deposit offer: Pay just 50% of your base rent as your security deposit (taxes and fees not included), valid for new applicants who sign a 12-month lease by April 30, 2026",,,,,,https://www.amh.com/query?criteria=Atlanta%2C+GA,2026-04-05,2026-04-05,GA,Conyers,33.620239,-83.969291,,,GA16736
2026-04-05,AMH,"Atlanta, GA","3198 Cedar Glade Lane, Buford, GA, 30519","Atlanta, GA",AMH-GA14128,3,2.5,1465,1990.0,2026-04-06,12 months,True,soft,"Special security deposit offer: Pay just 50% of your base rent as your security deposit (taxes and fees not included), valid for new applicants who sign a 12-month lease by April 30, 2026",,,,,,https://www.amh.com/query?criteria=Atlanta%2C+GA,2026-04-05,2026-04-05,GA,Buford,34.07145,-83.968935,,,GA14128
2026-04-05,AMH,"Atlanta, GA","2114 Serenity Drive NW, Acworth, GA, 30101","Atlanta, GA",AMH-GA17910,3,2.5,1380,2095.0,0001-01-01,12 months,True,soft,"Special security deposit offer: Pay just 50% of your base rent as your security deposit (taxes and fees not included), valid for new applicants who sign a 12-month lease by April 30, 2026",,,,,,https://www.amh.com/query?criteria=Atlanta%2C+GA,2026-04-05,2026-04-05,GA,Acworth,34.05313,-84.614344,,,GA17910
2026-04-05,AMH,"Atlanta, GA","5410 Lakebrooke Run, Stone Mountain, GA, 30087","Atlanta, GA",AMH-GA14899,3,2.5,1695,2180.0,2026-03-24,12 months,True,soft,"Special security deposit offer: Pay just 50% of your base rent as your security deposit (taxes and fees not included), valid for new applicants who sign a 12-month lease by April 30, 2026",,,,,,https://www.amh.com/query?criteria=Atlanta%2C+GA,2026-04-05,2026-04-05,GA,Stone Mountain,33.826908,-84.118828,,,GA14899
2026-04-05,AMH,"Atlanta, GA","329 Westminster Drive, Canton, GA, 30114","Atlanta, GA",AMH-GA11068,3,2.5,1982,2250.0,2026-03-18,12 months,True,soft,"Special security deposit offer: Pay just 50% of your base rent as your security deposit (taxes and fees not included), valid for new applicants who sign a 12-month lease by April 30, 2026",,,,,,https://www.amh.com/query?criteria=Atlanta%2C+GA,2026-04-05,2026-04-05,GA,Canton,34.178547,-84.526749,,,GA11068
2026-04-05,AMH,"Atlanta, GA","76 Oak Springs Lane, Dallas, GA, 30132","Atlanta, GA",AMH-GA16040,3,2.5,1784,1910.0,2025-12-08,12 months,True,soft,"Special security deposit offer: Pay just 50% of your base rent as your security deposit (taxes and fees not included), valid for new applicants who sign a 12-month lease by April 30, 2026",,,,,,https://www.amh.com/query?criteria=Atlanta%2C+GA,2026-04-05,2026-04-05,GA,Dallas,34.026472,-84.773167,,,GA16040
2026-04-05,AMH,"Atlanta, GA","5222 Blue Mountain Drive, Auburn, GA, 30011","Atlanta, GA",AMH-GA19549,4,3.0,2513,2695.0,2026-04-16,12 months,True,soft,"Special security deposit offer: Pay just 50% of your base rent as your security deposit (taxes and fees not included), valid for new applicants who sign a 12-month lease by April 30, 2026",,,,,,https://www.amh.com/query?criteria=Atlanta%2C+GA,2026-04-05,2026-04-05,GA,Auburn,34.08501,-83.8522,,,GA19549
2026-04-05,AMH,"Atlanta, GA","505 Camp Drive, Dallas, GA, 30157","Atlanta, GA",AMH-GA19378,4,2.5,2108,2095.0,0001-01-01,12 months,True,soft,"Special security deposit offer: Pay just 50% of your base rent as your security deposit (taxes and fees not included), valid for new applicants who sign a 12-month lease by April 30, 2026",,,,,,https://www.amh.com/query?criteria=Atlanta%2C+GA,2026-04-05,2026-04-05,GA,Dallas,33.961,-84.7588,,,GA19378
2026-04-05,AMH,"Atlanta, GA","168 Willow Lane, Dallas, GA, 30132","Atlanta, GA",AMH-GA20142,4,2.5,2297,2495.0,0001-01-01,12 months,True,soft,"Special security deposit offer: Pay just 50% of your base rent as your security deposit (taxes and fees not included), valid for new applicants who sign a 12-month lease by April 30, 2026",,,,,,https://www.amh.com/query?criteria=Atlanta%2C+GA,2026-04-05,2026-04-05,GA,Dallas,33.955278,-84.799308,,,GA20142
2026-04-05,AMH,"Atlanta, GA","5175 Hudson Valley Drive, Cumming, GA, 30028","Atlanta, GA",AMH-GA18380,5,3.0,2850,2930.0,2026-02-17,12 months,True,soft,"Special security deposit offer: Pay just 50% of your base rent as your security deposit (taxes and fees not included), valid for new applicants who sign a 12-month lease by April 30, 2026",,,,,,https://www.amh.com/query?criteria=Atlanta%2C+GA,2026-04-05,2026-04-05,GA,Cumming,34.242,-84.2572,,,GA18380
2026-04-05,AMH,"Atlanta, GA","10087 Harmon Springs Drive, Villa Rica, GA, 30180","Atlanta, GA",AMH-GA18851,4,2.5,2112,2195.0,2026-02-05,12 months,True,soft,"Special security deposit offer: Pay just 50% of your base rent as your security deposit (taxes and fees not included), valid for new applicants who sign a 12-month lease by April 30, 2026",,,,,,https://www.amh.com/query?criteria=Atlanta%2C+GA,2026-04-05,2026-04-05,GA,Villa Rica,33.747856,-84.900531,,,GA18851
2026-04-05,AMH,"Atlanta, GA","3612 Emory Creek View, Loganville, GA, 30052","Atlanta, GA",AMH-GA22559,4,2.5,2293,2450.0,2026-03-20,12 months,True,soft,"Special security deposit offer: Pay just 50% of your base rent as your security deposit (taxes and fees not included), valid for new applicants who sign a 12-month lease by April 30, 2026",,,,,,https://www.amh.com/query?criteria=Atlanta%2C+GA,2026-04-05,2026-04-05,GA,Loganville,33.888609,-83.899683,,,GA22559
2026-04-05,AMH,"Atlanta, GA","3555 Hanna Hill Road, Loganville, GA, 30052","Atlanta, GA",AMH-GA22550,4,2.5,2481,2550.0,2026-02-20,12 months,True,soft,"Special security deposit offer: Pay just 50% of your base rent as your security deposit (taxes and fees not included), valid for new applicants who sign a 12-month lease by April 30, 2026",,,,,,https://www.amh.com/query?criteria=Atlanta%2C+GA,2026-04-05,2026-04-05,GA,Loganville,33.888248,-83.898902,,,GA22550
2026-04-05,AMH,"Atlanta, GA","380 Hickory Pointe Loop, Dallas, GA, 30157","Atlanta, GA",AMH-GA21947,5,3.0,2513,2695.0,2025-12-18,12 months,True,soft,"Special security deposit offer: Pay just 50% of your base rent as your security deposit (taxes and fees not included), valid for new applicants who sign a 12-month lease by April 30, 2026",,,,,,https://www.amh.com/query?criteria=Atlanta%2C+GA,2026-04-05,2026-04-05,GA,Dallas,33.839851,-84.837476,,,GA21947
2026-04-05,AMH,"Atlanta, GA","117 Haeven Trail, Dallas, GA, 30132","Atlanta, GA",AMH-GA17499,4,2.5,2326,2120.0,2025-10-17,12 months,True,soft,"Special security deposit offer: Pay just 50% of your base rent as your security deposit (taxes and fees not included), valid for new applicants who sign a 12-month lease by April 30, 2026",,,,,,https://www.amh.com/query?criteria=Atlanta%2C+GA,2026-04-05,2026-04-05,GA,Dallas,33.933059,-84.838514,,,GA17499
2026-04-05,AMH,"Atlanta, GA","625 Gleaner Way, Locust Grove, GA, 30248","Atlanta, GA",AMH-GA20408,4,2.5,2421,2265.0,2026-03-09,12 months,True,soft,"Special security deposit offer: Pay just 50% of your base rent as your security deposit (taxes and fees not included), valid for new applicants who sign a 12-month lease by April 30, 2026",,,,,,https://www.amh.com/query?criteria=Atlanta%2C+GA,2026-04-05,2026-04-05,GA,Locust Grove,33.349717,-84.063908,,,GA20408
2026-04-05,AMH,"Atlanta, GA","2473 Napa Valley Drive, Villa Rica, GA, 30180","Atlanta, GA",AMH-GA19079,5,4.0,3121,2565.0,2026-03-31,12 months,True,soft,"Special security deposit offer: Pay just 50% of your base rent as your security deposit (taxes and fees not included), valid for new applicants who sign a 12-month lease by April 30, 2026",,,,,,https://www.amh.com/query?criteria=Atlanta%2C+GA,2026-04-05,2026-04-05,GA,Villa Rica,33.751456,-84.866509,,,GA19079
2026-04-05,AMH,"Atlanta, GA","154 Spring Creek Court, Canton, GA, 30115","Atlanta, GA",AMH-GA16449,4,3.0,1696,2325.0,2026-03-23,12 months,True,soft,"Special security deposit offer: Pay just 50% of your base rent as your security deposit (taxes and fees not included), valid for new applicants who sign a 12-month lease by April 30, 2026",,,,,,https://www.amh.com/query?criteria=Atlanta%2C+GA,2026-04-05,2026-04-05,GA,Canton,34.162289,-84.485519,,,GA16449
2026-04-05,AMH,"Atlanta, GA","1847 Rocky Water Court, Buford, GA, 30519","Atlanta, GA",AMH-GA14651,4,2.5,2468,2470.0,2026-03-30,12 months,True,soft,"Special security deposit offer: Pay just 50% of your base rent as your security deposit (taxes and fees not included), valid for new applicants who sign a 12-month lease by April 30, 2026",,,,,,https://www.amh.com/query?criteria=Atlanta%2C+GA,2026-04-05,2026-04-05,GA,Buford,34.044964,-83.963837,,,GA14651
2026-04-05,AMH,"Atlanta, GA","661 Stonecrest Drive, Loganville, GA, 30052","Atlanta, GA",AMH-GA16549,3,2.0,2015,2150.0,2026-03-31,12 months,True,soft,"Special security deposit offer: Pay just 50% of your base rent as your security deposit (taxes and fees not included), valid for new applicants who sign a 12-month lease by April 30, 2026",,,,,,https://www.amh.com/query?criteria=Atlanta%2C+GA,2026-04-05,2026-04-05,GA,Loganville,33.840403,-83.927801,,,GA16549
2026-04-05,AMH,"Atlanta, GA","2750 Freemont Street, Snellville, GA, 30078","Atlanta, GA",AMH-GA15767,4,2.5,2057,2285.0,2026-03-16,12 months,True,soft,"Special security deposit offer: Pay just 50% of your base rent as your security deposit (taxes and fees not included), valid for new applicants who sign a 12-month lease by April 30, 2026",,,,,,https://www.amh.com/query?criteria=Atlanta%2C+GA,2026-04-05,2026-04-05,GA,Snellville,33.84626,-84.01468,,,GA15767
2026-04-05,AMH,"Atlanta, GA","112 Oscar Way, Dallas, GA, 30132","Atlanta, GA",AMH-GA17510,4,3.5,2350,2200.0,2026-03-20,12 months,True,soft,"Special security deposit offer: Pay just 50% of your base rent as your security deposit (taxes and fees not included), valid for new applicants who sign a 12-month lease by April 30, 2026",,,,,,https://www.amh.com/query?criteria=Atlanta%2C+GA,2026-04-05,2026-04-05,GA,Dallas,33.934984,-84.84243,,,GA17510
2026-04-05,AMH,"Atlanta, GA","692 Woodall Road, Stockbridge, GA, 30281","Atlanta, GA",AMH-GA19325,3,2.5,2010,2285.0,2026-03-19,12 months,True,soft,"Special security deposit offer: Pay just 50% of your base rent as your security deposit (taxes and fees not included), valid for new applicants who sign a 12-month lease by April 30, 2026",,,,,,https://www.amh.com/query?criteria=Atlanta%2C+GA,2026-04-05,2026-04-05,GA,Stockbridge,33.568547,-84.239023,,,GA19325
2026-04-05,AMH,"Atlanta, GA","2130 Twisted Creek Lane, Auburn, GA, 30011","Atlanta, GA",AMH-GA19573,5,4.0,2714,2915.0,2026-04-02,12 months,True,soft,"Special security deposit offer: Pay just 50% of your base rent as your security deposit (taxes and fees not included), valid for new applicants who sign a 12-month lease by April 30, 2026",,,,,,https://www.amh.com/query?criteria=Atlanta%2C+GA,2026-04-05,2026-04-05,GA,Auburn,34.08471,-83.8574,,,GA19573
2026-04-05,AMH,"Atlanta, GA","731 Hot Springs Trail, McDonough, GA, 30252","Atlanta, GA",AMH-GA21891,4,2.5,2485,2550.0,2026-03-25,12 months,True,soft,"Special security deposit offer: Pay just 50% of your base rent as your security deposit (taxes and fees not included), valid for new applicants who sign a 12-month lease by April 30, 2026",,,,,,https://www.amh.com/query?criteria=Atlanta%2C+GA,2026-04-05,2026-04-05,GA,McDonough,33.458309,-84.107265,,,GA21891
2026-04-05,AMH,"Atlanta, GA","1469 Aquamarine Drive, Loganville, GA, 30052","Atlanta, GA",AMH-GA22894,5,3.0,2502,2775.0,2026-02-17,12 months,True,soft,"Special security deposit offer: Pay just 50% of your base rent as your security deposit (taxes and fees not included), valid for new applicants who sign a 12-month lease by April 30, 2026",,,,,,https://www.amh.com/query?criteria=Atlanta%2C+GA,2026-04-05,2026-04-05,GA,Loganville,33.892928,-83.8881,,,GA22894
2026-04-05,AMH,"Atlanta, GA","688 Woodall Road, Stockbridge, GA, 30281","Atlanta, GA",AMH-GA19326,4,2.5,2090,2485.0,2026-01-09,12 months,True,soft,"Special security deposit offer: Pay just 50% of your base rent as your security deposit (taxes and fees not included), valid for new applicants who sign a 12-month lease by April 30, 2026",,,,,,https://www.amh.com/query?criteria=Atlanta%2C+GA,2026-04-05,2026-04-05,GA,Stockbridge,33.5688,-84.2391,,,GA19326
2026-04-05,AMH,"Atlanta, GA","425 Hickory Pointe Loop, Dallas, GA, 30157","Atlanta, GA",AMH-GA22016,4,2.5,2293,2420.0,2026-02-20,12 months,True,soft,"Special security deposit offer: Pay just 50% of your base rent as your security deposit (taxes and fees not included), valid for new applicants who sign a 12-month lease by April 30, 2026",,,,,,https://www.amh.com/query?criteria=Atlanta%2C+GA,2026-04-05,2026-04-05,GA,Dallas,33.839401,-84.836715,,,GA22016
2026-04-05,AMH,"Atlanta, GA","439 Hickory Pointe Loop, Dallas, GA, 30157","Atlanta, GA",AMH-GA22017,4,2.5,2481,2555.0,2026-02-17,12 months,True,soft,"Special security deposit offer: Pay just 50% of your base rent as your security deposit (taxes and fees not included), valid for new applicants who sign a 12-month lease by April 30, 2026",,,,,,https://www.amh.com/query?criteria=Atlanta%2C+GA,2026-04-05,2026-04-05,GA,Dallas,33.839229,-84.836441,,,GA22017
2026-04-05,AMH,"Atlanta, GA","104 Arbor Creek Way, Dallas, GA, 30157","Atlanta, GA",AMH-GA14925,4,2.5,2202,2215.0,2026-03-24,12 months,True,soft,"Special security deposit offer: Pay just 50% of your base rent as your security deposit (taxes and fees not included), valid for new applicants who sign a 12-month lease by April 30, 2026",,,,,,https://www.amh.com/query?criteria=Atlanta%2C+GA,2026-04-05,2026-04-05,GA,Dallas,33.899403,-84.849915,,,GA14925
2026-04-05,AMH,"Atlanta, GA","3436 Archgate Court, Milton, GA, 30004","Atlanta, GA",AMH-GAA0205,3,2.5,2513,2795.0,2026-03-25,12 months,True,soft,"Special security deposit offer: Pay just 50% of your base rent as your security deposit (taxes and fees not included), valid for new applicants who sign a 12-month lease by April 30, 2026",,,,,,https://www.amh.com/query?criteria=Atlanta%2C+GA,2026-04-05,2026-04-05,GA,Milton,34.125927,-84.260544,,,GAA0205
2026-04-05,AMH,"Atlanta, GA","540 Gables Court, Mcdonough, GA, 30253","Atlanta, GA",AMH-GA14733,4,2.5,2191,2345.0,2026-03-26,12 months,True,soft,"Special security deposit offer: Pay just 50% of your base rent as your security deposit (taxes and fees not included), valid for new applicants who sign a 12-month lease by April 30, 2026",,,,,,https://www.amh.com/query?criteria=Atlanta%2C+GA,2026-04-05,2026-04-05,GA,Mcdonough,33.486897,-84.185432,,,GA14733
2026-04-05,AMH,"Atlanta, GA","550 Brook Hollow Drive, Mcdonough, GA, 30252","Atlanta, GA",AMH-GA16792,4,2.5,2305,2430.0,2026-03-26,12 months,True,soft,"Special security deposit offer: Pay just 50% of your base rent as your security deposit (taxes and fees not included), valid for new applicants who sign a 12-month lease by April 30, 2026",,,,,,https://www.amh.com/query?criteria=Atlanta%2C+GA,2026-04-05,2026-04-05,GA,Mcdonough,33.540815,-84.119285,,,GA16792
2026-04-05,AMH,"Atlanta, GA","412 Farmwood Way, Canton, GA, 30115","Atlanta, GA",AMH-GA18345,5,3.0,3209,2935.0,2026-03-16,12 months,True,soft,"Special security deposit offer: Pay just 50% of your base rent as your security deposit (taxes and fees not included), valid for new applicants who sign a 12-month lease by April 30, 2026",,,,,,https://www.amh.com/query?criteria=Atlanta%2C+GA,2026-04-05,2026-04-05,GA,Canton,34.2261,-84.33861,,,GA18345
2026-04-05,AMH,"Atlanta, GA","101 Springbrook Lane, Stockbridge, GA, 30281","Atlanta, GA",AMH-GA17572,3,2.0,1691,2015.0,2026-03-24,12 months,True,soft,"Special security deposit offer: Pay just 50% of your base rent as your security deposit (taxes and fees not included), valid for new applicants who sign a 12-month lease by April 30, 2026",,,,,,https://www.amh.com/query?criteria=Atlanta%2C+GA,2026-04-05,2026-04-05,GA,Stockbridge,33.599252,-84.176507,,,GA17572
2026-04-05,AMH,"Atlanta, GA","251 Lake Vista Drive, Loganville, GA, 30052","Atlanta, GA",AMH-GA17721,4,2.5,2400,2445.0,2026-03-13,12 months,True,soft,"Special security deposit offer: Pay just 50% of your base rent as your security deposit (taxes and fees not included), valid for new applicants who sign a 12-month lease by April 30, 2026",,,,,,https://www.amh.com/query?criteria=Atlanta%2C+GA,2026-04-05,2026-04-05,GA,Loganville,33.851275,-83.878447,,,GA17721
2026-04-05,AMH,"Atlanta, GA","347 Hickory Pointe Loop, Dallas, GA, 30157","Atlanta, GA",AMH-GA22013,4,2.5,2481,2555.0,2026-03-06,12 months,True,soft,"Special security deposit offer: Pay just 50% of your base rent as your security deposit (taxes and fees not included), valid for new applicants who sign a 12-month lease by April 30, 2026",,,,,,https://www.amh.com/query?criteria=Atlanta%2C+GA,2026-04-05,2026-04-05,GA,Dallas,33.840362,-84.837006,,,GA22013
2026-04-05,AMH,"Atlanta, GA","3089 Ansley Place Road, Loganville, GA, 30052","Atlanta, GA",AMH-GA22538,5,3.0,2513,2695.0,2026-03-19,12 months,True,soft,"Special security deposit offer: Pay just 50% of your base rent as your security deposit (taxes and fees not included), valid for new applicants who sign a 12-month lease by April 30, 2026",,,,,,https://www.amh.com/query?criteria=Atlanta%2C+GA,2026-04-05,2026-04-05,GA,Loganville,33.888314,-83.898397,,,GA22538
2026-04-05,AMH,"Atlanta, GA","1515 Morning Glory Way, Locust Grove, GA, 30248","Atlanta, GA",AMH-GA12805,3,2.0,1501,1975.0,2026-04-06,12 months,True,soft,"Special security deposit offer: Pay just 50% of your base rent as your security deposit (taxes and fees not included), valid for new applicants who sign a 12-month lease by April 30, 2026",,,,,,https://www.amh.com/query?criteria=Atlanta%2C+GA,2026-04-05,2026-04-05,GA,Locust Grove,33.357452,-84.088371,,,GA12805
2026-04-05,AMH,"Atlanta, GA","1390 Ashlyn Court, Lawrenceville, GA, 30043","Atlanta, GA",AMH-GA19507,4,2.5,2449,2625.0,2026-04-03,12 months,True,soft,"Special security deposit offer: Pay just 50% of your base rent as your security deposit (taxes and fees not included), valid for new applicants who sign a 12-month lease by April 30, 2026",,,,,,https://www.amh.com/query?criteria=Atlanta%2C+GA,2026-04-05,2026-04-05,GA,Lawrenceville,34.0462,-83.9579,,,GA19507
2026-04-05,AMH,"Atlanta, GA","1394 Prospect Creek Court, Lawrenceville, GA, 30043","Atlanta, GA",AMH-GA15608,3,2.0,2528,2290.0,2025-11-20,12 months,True,soft,"Special security deposit offer: Pay just 50% of your base rent as your security deposit (taxes and fees not included), valid for new applicants who sign a 12-month lease by April 30, 2026",,,,,,https://www.amh.com/query?criteria=Atlanta%2C+GA,2026-04-05,2026-04-05,GA,Lawrenceville,34.017186,-83.956771,,,GA15608
2026-04-05,AMH,"Atlanta, GA","199 High Trail Pass, Dallas, GA, 30132","Atlanta, GA",AMH-GA18143,4,3.0,2908,2505.0,2026-03-25,12 months,True,soft,"Special security deposit offer: Pay just 50% of your base rent as your security deposit (taxes and fees not included), valid for new applicants who sign a 12-month lease by April 30, 2026",,,,,,https://www.amh.com/query?criteria=Atlanta%2C+GA,2026-04-05,2026-04-05,GA,Dallas,33.952958,-84.806199,,,GA18143
2026-04-05,AMH,"Atlanta, GA","134 Cobblestone Drive, Dallas, GA, 30132","Atlanta, GA",AMH-GA18057,3,2.5,1805,2090.0,0001-01-01,12 months,True,soft,"Special security deposit offer: Pay just 50% of your base rent as your security deposit (taxes and fees not included), valid for new applicants who sign a 12-month lease by April 30, 2026",,,,,,https://www.amh.com/query?criteria=Atlanta%2C+GA,2026-04-05,2026-04-05,GA,Dallas,33.924184,-84.833708,,,GA18057
2026-04-05,AMH,"Atlanta, GA","7055 Creeksong Drive, Douglasville, GA, 30134","Atlanta, GA",AMH-GA18669,5,3.0,2215,2575.0,2026-03-23,12 months,True,soft,"Special security deposit offer: Pay just 50% of your base rent as your security deposit (taxes and fees not included), valid for new applicants who sign a 12-month lease by April 30, 2026",,,,,,https://www.amh.com/query?criteria=Atlanta%2C+GA,2026-04-05,2026-04-05,GA,Douglasville,33.7601,-84.7573,,,GA18669
2026-04-05,AMH,"Atlanta, GA","2830 Elkmont Ridge, Atlanta, GA, 30331","Atlanta, GA",AMH-GA14982,4,3.0,3268,2775.0,2026-03-30,12 months,True,soft,"Special security deposit offer: Pay just 50% of your base rent as your security deposit (taxes and fees not included), valid for new applicants who sign a 12-month lease by April 30, 2026",,,,,,https://www.amh.com/query?criteria=Atlanta%2C+GA,2026-04-05,2026-04-05,GA,Atlanta,33.676697,-84.619743,,,GA14982
2026-04-05,AMH,"Atlanta, GA","1459 Aquamarine Drive, Loganville, GA, 30052","Atlanta, GA",AMH-GA22895,4,2.5,2293,2550.0,2026-02-20,12 months,True,soft,"Special security deposit offer: Pay just 50% of your base rent as your security deposit (taxes and fees not included), valid for new applicants who sign a 12-month lease by April 30, 2026",,,,,,https://www.amh.com/query?criteria=Atlanta%2C+GA,2026-04-05,2026-04-05,GA,Loganville,33.892936,-83.8883,,,GA22895
2026-04-05,AMH,"Atlanta, GA","3545 Hanna Hill Road, Loganville, GA, 30052","Atlanta, GA",AMH-GA22549,5,3.0,2513,2695.0,2026-02-24,12 months,True,soft,"Special security deposit offer: Pay just 50% of your base rent as your security deposit (taxes and fees not included), valid for new applicants who sign a 12-month lease by April 30, 2026",,,,,,https://www.amh.com/query?criteria=Atlanta%2C+GA,2026-04-05,2026-04-05,GA,Loganville,33.888383,-83.898998,,,GA22549
2026-04-05,AMH,"Atlanta, GA","3505 Hanna Hill Road, Loganville, GA, 30052","Atlanta, GA",AMH-GA22545,5,3.0,2513,2695.0,2026-02-02,12 months,True,soft,"Special security deposit offer: Pay just 50% of your base rent as your security deposit (taxes and fees not included), valid for new applicants who sign a 12-month lease by April 30, 2026",,,,,,https://www.amh.com/query?criteria=Atlanta%2C+GA,2026-04-05,2026-04-05,GA,Loganville,33.88894,-83.899388,,,GA22545
2026-04-05,AMH,"Atlanta, GA","3069 Ansley Place Road, Loganville, GA, 30052","Atlanta, GA",AMH-GA22537,4,2.5,2481,2550.0,2025-12-12,12 months,True,soft,"Special security deposit offer: Pay just 50% of your base rent as your security deposit (taxes and fees not included), valid for new applicants who sign a 12-month lease by April 30, 2026",,,,,,https://www.amh.com/query?criteria=Atlanta%2C+GA,2026-04-05,2026-04-05,GA,Loganville,33.888438,-83.898346,,,GA22537
2026-04-05,AMH,"Atlanta, GA","3029 Ansley Place Road, Loganville, GA, 30052","Atlanta, GA",AMH-GA22534,5,3.0,2513,2695.0,2025-11-26,12 months,True,soft,"Special security deposit offer: Pay just 50% of your base rent as your security deposit (taxes and fees not included), valid for new applicants who sign a 12-month lease by April 30, 2026",,,,,,https://www.amh.com/query?criteria=Atlanta%2C+GA,2026-04-05,2026-04-05,GA,Loganville,33.888959,-83.898543,,,GA22534
2026-04-05,AMH,"Atlanta, GA","3009 Ansley Place Road, Loganville, GA, 30052","Atlanta, GA",AMH-GA22532,4,2.5,2293,2450.0,2025-10-29,12 months,True,soft,"Special security deposit offer: Pay just 50% of your base rent as your security deposit (taxes and fees not included), valid for new applicants who sign a 12-month lease by April 30, 2026",,,,,,https://www.amh.com/query?criteria=Atlanta%2C+GA,2026-04-05,2026-04-05,GA,Loganville,33.889245,-83.898746,,,GA22532
2026-04-05,AMH,"Atlanta, GA","3019 Ansley Place Road, Loganville, GA, 30052","Atlanta, GA",AMH-GA22533,4,2.5,2481,2550.0,2025-11-10,12 months,True,soft,"Special security deposit offer: Pay just 50% of your base rent as your security deposit (taxes and fees not included), valid for new applicants who sign a 12-month lease by April 30, 2026",,,,,,https://www.amh.com/query?criteria=Atlanta%2C+GA,2026-04-05,2026-04-05,GA,Loganville,33.889103,-83.898646,,,GA22533
2026-04-05,AMH,"Atlanta, GA","890 Jubilation Street, Loganville, GA, 30052","Atlanta, GA",AMH-GA22396,4,2.5,2293,2550.0,2025-09-30,12 months,True,soft,"Special security deposit offer: Pay just 50% of your base rent as your security deposit (taxes and fees not included), valid for new applicants who sign a 12-month lease by April 30, 2026",,,,,,https://www.amh.com/query?criteria=Atlanta%2C+GA,2026-04-05,2026-04-05,GA,Loganville,33.889665,-83.898617,,,GA22396
2026-04-05,AMH,"Atlanta, GA","511 Hickory Pointe Loop, Dallas, GA, 30157","Atlanta, GA",AMH-GA22022,4,2.5,2293,2420.0,2026-01-21,12 months,True,soft,"Special security deposit offer: Pay just 50% of your base rent as your security deposit (taxes and fees not included), valid for new applicants who sign a 12-month lease by April 30, 2026",,,,,,https://www.amh.com/query?criteria=Atlanta%2C+GA,2026-04-05,2026-04-05,GA,Dallas,33.838012,-84.836129,,,GA22022
2026-04-05,AMH,"Atlanta, GA","395 Hickory Pointe Loop, Dallas, GA, 30157","Atlanta, GA",AMH-GA22015,4,2.5,2481,2555.0,2026-02-24,12 months,True,soft,"Special security deposit offer: Pay just 50% of your base rent as your security deposit (taxes and fees not included), valid for new applicants who sign a 12-month lease by April 30, 2026",,,,,,https://www.amh.com/query?criteria=Atlanta%2C+GA,2026-04-05,2026-04-05,GA,Dallas,33.839687,-84.836868,,,GA22015
2026-04-05,AMH,"Atlanta, GA","56 Hickory Pointe Road, Dallas, GA, 30157","Atlanta, GA",AMH-GA21997,4,2.5,2481,2555.0,2025-10-17,12 months,True,soft,"Special security deposit offer: Pay just 50% of your base rent as your security deposit (taxes and fees not included), valid for new applicants who sign a 12-month lease by April 30, 2026",,,,,,https://www.amh.com/query?criteria=Atlanta%2C+GA,2026-04-05,2026-04-05,GA,Dallas,33.838362,-84.833828,,,GA21997
2026-04-05,AMH,"Atlanta, GA","232 Hickory Pointe Loop, Dallas, GA, 30157","Atlanta, GA",AMH-GA21957,5,3.0,2513,2720.0,2026-04-01,12 months,True,soft,"Special security deposit offer: Pay just 50% of your base rent as your security deposit (taxes and fees not included), valid for new applicants who sign a 12-month lease by April 30, 2026",,,,,,https://www.amh.com/query?criteria=Atlanta%2C+GA,2026-04-05,2026-04-05,GA,Dallas,33.840509,-84.836075,,,GA21957
2026-04-05,AMH,"Atlanta, GA","305 Golucke Way, McDonough, GA, 30252","Atlanta, GA",AMH-GA22136,4,2.5,2449,2700.0,2026-03-16,12 months,True,soft,"Special security deposit offer: Pay just 50% of your base rent as your security deposit (taxes and fees not included), valid for new applicants who sign a 12-month lease by April 30, 2026",,,,,,https://www.amh.com/query?criteria=Atlanta%2C+GA,2026-04-05,2026-04-05,GA,McDonough,33.44053,-84.0397,,,GA22136
2026-04-05,AMH,"Atlanta, GA","3500 Watson Gate Road, Loganville, GA, 30052","Atlanta, GA",AMH-GA18044,4,2.5,2968,2475.0,2026-03-18,12 months,True,soft,"Special security deposit offer: Pay just 50% of your base rent as your security deposit (taxes and fees not included), valid for new applicants who sign a 12-month lease by April 30, 2026",,,,,,https://www.amh.com/query?criteria=Atlanta%2C+GA,2026-04-05,2026-04-05,GA,Loganville,33.86299,-83.9268,,,GA18044
2026-04-05,AMH,"Atlanta, GA","373 Winston Circle, Canton, GA, 30114","Atlanta, GA",AMH-GA20318,3,2.5,1839,2215.0,0001-01-01,12 months,True,soft,"Special security deposit offer: Pay just 50% of your base rent as your security deposit (taxes and fees not included), valid for new applicants who sign a 12-month lease by April 30, 2026",,,,,,https://www.amh.com/query?criteria=Atlanta%2C+GA,2026-04-05,2026-04-05,GA,Canton,34.2148,-84.528309,,,GA20318
2026-04-05,AMH,"Atlanta, GA","776 Somersby Drive, Dallas, GA, 30157","Atlanta, GA",AMH-GA21406,4,3.0,2395,2720.0,0001-01-01,12 months,True,soft,"Special security deposit offer: Pay just 50% of your base rent as your security deposit (taxes and fees not included), valid for new applicants who sign a 12-month lease by April 30, 2026",,,,,,https://www.amh.com/query?criteria=Atlanta%2C+GA,2026-04-05,2026-04-05,GA,Dallas,33.881247,-84.850175,,,GA21406
2026-04-05,AMH,"Atlanta, GA","109 Fairway Crossing Way, Cumming, GA, 30040","Atlanta, GA",AMH-GA19999,4,2.5,2326,2575.0,2026-03-27,12 months,True,soft,"Special security deposit offer: Pay just 50% of your base rent as your security deposit (taxes and fees not included), valid for new applicants who sign a 12-month lease by April 30, 2026",,,,,,https://www.amh.com/query?criteria=Atlanta%2C+GA,2026-04-05,2026-04-05,GA,Cumming,34.2213,-84.1292,,,GA19999
2026-04-05,AMH,"Atlanta, GA","2613 Newtons Crest Circle, Snellville, GA, 30078","Atlanta, GA",AMH-GA20445,4,2.5,2174,2395.0,2026-02-20,12 months,True,soft,"Special security deposit offer: Pay just 50% of your base rent as your security deposit (taxes and fees not included), valid for new applicants who sign a 12-month lease by April 30, 2026",,,,,,https://www.amh.com/query?criteria=Atlanta%2C+GA,2026-04-05,2026-04-05,GA,Snellville,33.840096,-84.026553,,,GA20445
2026-04-05,AMH,"Atlanta, GA","227 Starlyn Drive, Hiram, GA, 30141","Atlanta, GA",AMH-GA16309,4,3.0,2292,2035.0,0001-01-01,12 months,True,soft,"Special security deposit offer: Pay just 50% of your base rent as your security deposit (taxes and fees not included), valid for new applicants who sign a 12-month lease by April 30, 2026",,,,,,https://www.amh.com/query?criteria=Atlanta%2C+GA,2026-04-05,2026-04-05,GA,Hiram,33.818733,-84.787552,,,GA16309
2026-04-05,AMH,"Atlanta, GA","825 Headland Way, Canton, GA, 30114","Atlanta, GA",AMH-GA19779,4,2.5,2098,2475.0,2026-03-25,12 months,True,soft,"Special security deposit offer: Pay just 50% of your base rent as your security deposit (taxes and fees not included), valid for new applicants who sign a 12-month lease by April 30, 2026",,,,,,https://www.amh.com/query?criteria=Atlanta%2C+GA,2026-04-05,2026-04-05,GA,Canton,34.262048,-84.459234,,,GA19779
2026-04-05,AMH,"Atlanta, GA","189 Willow Lane, Dallas, GA, 30132","Atlanta, GA",AMH-GA20122,4,2.5,2078,2450.0,2026-04-03,12 months,True,soft,"Special security deposit offer: Pay just 50% of your base rent as your security deposit (taxes and fees not included), valid for new applicants who sign a 12-month lease by April 30, 2026",,,,,,https://www.amh.com/query?criteria=Atlanta%2C+GA,2026-04-05,2026-04-05,GA,Dallas,33.955344,-84.799781,,,GA20122
2026-04-05,AMH,"Atlanta, GA","4905 Franks Creek Way, Cumming, GA, 30028","Atlanta, GA",AMH-GA18414,3,2.5,2111,2640.0,2026-03-26,12 months,True,soft,"Special security deposit offer: Pay just 50% of your base rent as your security deposit (taxes and fees not included), valid for new applicants who sign a 12-month lease by April 30, 2026",,,,,,https://www.amh.com/query?criteria=Atlanta%2C+GA,2026-04-05,2026-04-05,GA,Cumming,34.2397,-84.2552,,,GA18414
2026-04-05,AMH,"Atlanta, GA","200 Deer Walk Drive, Winder, GA, 30680","Atlanta, GA",AMH-GA15026,3,2.0,1550,1990.0,0001-01-01,12 months,True,soft,"Special security deposit offer: Pay just 50% of your base rent as your security deposit (taxes and fees not included), valid for new applicants who sign a 12-month lease by April 30, 2026",,,,,,https://www.amh.com/query?criteria=Atlanta%2C+GA,2026-04-05,2026-04-05,GA,Winder,33.973713,-83.753708,,,GA15026
2026-04-05,AMH,"Atlanta, GA","8106 Brookbend Drive, Douglasville, GA, 30134","Atlanta, GA",AMH-GA18601,4,3.5,2524,2550.0,2026-03-18,12 months,True,soft,"Special security deposit offer: Pay just 50% of your base rent as your security deposit (taxes and fees not included), valid for new applicants who sign a 12-month lease by April 30, 2026",,,,,,https://www.amh.com/query?criteria=Atlanta%2C+GA,2026-04-05,2026-04-05,GA,Douglasville,33.759694,-84.759501,,,GA18601
2026-04-05,AMH,"Atlanta, GA","2484 Napa Valley Drive, Villa Rica, GA, 30180","Atlanta, GA",AMH-GA19116,3,2.5,1891,2015.0,2025-11-18,12 months,True,soft,"Special security deposit offer: Pay just 50% of your base rent as your security deposit (taxes and fees not included), valid for new applicants who sign a 12-month lease by April 30, 2026",,,,,,https://www.amh.com/query?criteria=Atlanta%2C+GA,2026-04-05,2026-04-05,GA,Villa Rica,33.751415,-84.867661,,,GA19116
2026-04-05,AMH,"Atlanta, GA","881 Simon Park Circle, Lawrenceville, GA, 30045","Atlanta, GA",AMH-GA13013,4,2.5,2342,2305.0,0001-01-01,12 months,True,soft,"Special security deposit offer: Pay just 50% of your base rent as your security deposit (taxes and fees not included), valid for new applicants who sign a 12-month lease by April 30, 2026",,,,,,https://www.amh.com/query?criteria=Atlanta%2C+GA,2026-04-05,2026-04-05,GA,Lawrenceville,33.94928,-83.944695,,,GA13013
2026-04-05,AMH,"Atlanta, GA","3740 Georgia Drive, Douglasville, GA, 30135","Atlanta, GA",AMH-GA14681,4,3.5,2441,2450.0,2026-03-24,12 months,True,soft,"Special security deposit offer: Pay just 50% of your base rent as your security deposit (taxes and fees not included), valid for new applicants who sign a 12-month lease by April 30, 2026",,,,,,https://www.amh.com/query?criteria=Atlanta%2C+GA,2026-04-05,2026-04-05,GA,Douglasville,33.704395,-84.696472,,,GA14681
2026-04-05,AMH,"Atlanta, GA","5455 Yellow Pine Drive, Mcdonough, GA, 30252","Atlanta, GA",AMH-GA15009,4,2.0,1869,1990.0,2026-03-06,12 months,True,soft,"Special security deposit offer: Pay just 50% of your base rent as your security deposit (taxes and fees not included), valid for new applicants who sign a 12-month lease by April 30, 2026",,,,,,https://www.amh.com/query?criteria=Atlanta%2C+GA,2026-04-05,2026-04-05,GA,Mcdonough,33.422108,-84.128761,,,GA15009
2026-04-05,AMH,"Atlanta, GA","3337 O'Kelly Drive, Loganville, GA, 30052","Atlanta, GA",AMH-GA16902,5,3.0,2435,2550.0,2026-03-26,12 months,True,soft,"Special security deposit offer: Pay just 50% of your base rent as your security deposit (taxes and fees not included), valid for new applicants who sign a 12-month lease by April 30, 2026",,,,,,https://www.amh.com/query?criteria=Atlanta%2C+GA,2026-04-05,2026-04-05,GA,Loganville,33.858293,-83.930179,,,GA16902
2026-04-05,AMH,"Atlanta, GA","351 Shady Glen, Dallas, GA, 30132","Atlanta, GA",AMH-GA23096,4,2.5,2380,2400.0,2026-03-26,12 months,True,soft,"Special security deposit offer: Pay just 50% of your base rent as your security deposit (taxes and fees not included), valid for new applicants who sign a 12-month lease by April 30, 2026",,,,,,https://www.amh.com/query?criteria=Atlanta%2C+GA,2026-04-05,2026-04-05,GA,Dallas,33.995428,-84.779343,,,GA23096
2026-04-05,AMH,"Atlanta, GA","750 Compton Lane, McDonough, GA, 30253","Atlanta, GA",AMH-GA15390,4,2.5,2196,2205.0,2026-03-24,12 months,True,soft,"Special security deposit offer: Pay just 50% of your base rent as your security deposit (taxes and fees not included), valid for new applicants who sign a 12-month lease by April 30, 2026",,,,,,https://www.amh.com/query?criteria=Atlanta%2C+GA,2026-04-05,2026-04-05,GA,McDonough,33.444153,-84.17791,,,GA15390
2026-04-05,AMH,"Atlanta, GA","3511 Umatilla Ln SW, Atlanta, GA, 30331","Atlanta, GA",AMH-GA12794,4,3.0,2760,2695.0,2026-03-31,12 months,True,soft,"Special security deposit offer: Pay just 50% of your base rent as your security deposit (taxes and fees not included), valid for new applicants who sign a 12-month lease by April 30, 2026",,,,,,https://www.amh.com/query?criteria=Atlanta%2C+GA,2026-04-05,2026-04-05,GA,Atlanta,33.662033,-84.545715,,,GA12794
2026-04-05,AMH,"Atlanta, GA","740 Chatham Park Drive, Lawrenceville, GA, 30046","Atlanta, GA",AMH-GA14936,3,2.0,1740,2195.0,2026-04-01,12 months,True,soft,"Special security deposit offer: Pay just 50% of your base rent as your security deposit (taxes and fees not included), valid for new applicants who sign a 12-month lease by April 30, 2026",,,,,,https://www.amh.com/query?criteria=Atlanta%2C+GA,2026-04-05,2026-04-05,GA,Lawrenceville,33.924641,-83.989021,,,GA14936
2026-04-05,AMH,"Atlanta, GA","387 Moreland Circle, Hiram, GA, 30141","Atlanta, GA",AMH-GA13438,3,3.0,2234,2040.0,0001-01-01,12 months,True,soft,"Special security deposit offer: Pay just 50% of your base rent as your security deposit (taxes and fees not included), valid for new applicants who sign a 12-month lease by April 30, 2026",,,,,,https://www.amh.com/query?criteria=Atlanta%2C+GA,2026-04-05,2026-04-05,GA,Hiram,33.910061,-84.73954,,,GA13438
2026-04-05,AMH,"Atlanta, GA","228 Kings Cove, Locust Grove, GA, 30248","Atlanta, GA",AMH-GA17026,4,2.5,1640,1975.0,2026-03-20,12 months,True,soft,"Special security deposit offer: Pay just 50% of your base rent as your security deposit (taxes and fees not included), valid for new applicants who sign a 12-month lease by April 30, 2026",,,,,,https://www.amh.com/query?criteria=Atlanta%2C+GA,2026-04-05,2026-04-05,GA,Locust Grove,33.339541,-84.078617,,,GA17026
2026-04-05,AMH,"Atlanta, GA","4809 Rapids Circle NW, Acworth, GA, 30102","Atlanta, GA",AMH-GA00129,4,3.0,3886,3105.0,0001-01-01,12 months,True,soft,"Special security deposit offer: Pay just 50% of your base rent as your security deposit (taxes and fees not included), valid for new applicants who sign a 12-month lease by April 30, 2026",,,,,,https://www.amh.com/query?criteria=Atlanta%2C+GA,2026-04-05,2026-04-05,GA,Acworth,34.07085,-84.601547,,,GA00129
2026-04-05,AMH,"Atlanta, GA","4148 Duncan Ives Drive, Buford, GA, 30519","Atlanta, GA",AMH-GA12978,4,3.0,3780,2740.0,2026-03-30,12 months,True,soft,"Special security deposit offer: Pay just 50% of your base rent as your security deposit (taxes and fees not included), valid for new applicants who sign a 12-month lease by April 30, 2026",,,,,,https://www.amh.com/query?criteria=Atlanta%2C+GA,2026-04-05,2026-04-05,GA,Buford,34.105042,-83.89209,,,GA12978
2026-04-05,AMH,"Atlanta, GA","2075 Reserve Parkway, Mcdonough, GA, 30253","Atlanta, GA",AMH-GA13274,4,2.0,2077,2015.0,2026-01-22,12 months,True,soft,"Special security deposit offer: Pay just 50% of your base rent as your security deposit (taxes and fees not included), valid for new applicants who sign a 12-month lease by April 30, 2026",,,,,,https://www.amh.com/query?criteria=Atlanta%2C+GA,2026-04-05,2026-04-05,GA,Mcdonough,33.39305,-84.182842,,,GA13274
2026-04-05,AMH,"Atlanta, GA","1508 Woodberry Court, Mcdonough, GA, 30253","Atlanta, GA",AMH-GA16266,3,2.0,1556,1955.0,0001-01-01,12 months,True,soft,"Special security deposit offer: Pay just 50% of your base rent as your security deposit (taxes and fees not included), valid for new applicants who sign a 12-month lease by April 30, 2026",,,,,,https://www.amh.com/query?criteria=Atlanta%2C+GA,2026-04-05,2026-04-05,GA,Mcdonough,33.485142,-84.192268,,,GA16266
2026-04-05,AMH,"Atlanta, GA","91 Spruce Circle, Dallas, GA, 30132","Atlanta, GA",AMH-GA20096,4,2.5,2078,2480.0,2026-03-30,12 months,True,soft,"Special security deposit offer: Pay just 50% of your base rent as your security deposit (taxes and fees not included), valid for new applicants who sign a 12-month lease by April 30, 2026",,,,,,https://www.amh.com/query?criteria=Atlanta%2C+GA,2026-04-05,2026-04-05,GA,Dallas,33.953897,-84.799508,,,GA20096
2026-04-05,AMH,"Atlanta, GA","3174 Baymount Way, Lawrenceville, GA, 30043","Atlanta, GA",AMH-GA00237,3,2.0,1860,2325.0,2026-03-30,12 months,True,soft,"Special security deposit offer: Pay just 50% of your base rent as your security deposit (taxes and fees not included), valid for new applicants who sign a 12-month lease by April 30, 2026",,,,,,https://www.amh.com/query?criteria=Atlanta%2C+GA,2026-04-05,2026-04-05,GA,Lawrenceville,34.051837,-84.006011,,,GA00237
2026-04-05,AMH,"Atlanta, GA","805 Chatham Park Drive, Lawrenceville, GA, 30045","Atlanta, GA",AMH-GA14902,3,2.0,1459,2050.0,2026-02-17,12 months,True,soft,"Special security deposit offer: Pay just 50% of your base rent as your security deposit (taxes and fees not included), valid for new applicants who sign a 12-month lease by April 30, 2026",,,,,,https://www.amh.com/query?criteria=Atlanta%2C+GA,2026-04-05,2026-04-05,GA,Lawrenceville,33.924026,-83.990227,,,GA14902
2026-04-05,AMH,"Atlanta, GA","1130 Saint Phillips Court, Locust Grove, GA, 30248","Atlanta, GA",AMH-GA16681,4,2.5,2010,2105.0,2026-04-02,12 months,True,soft,"Special security deposit offer: Pay just 50% of your base rent as your security deposit (taxes and fees not included), valid for new applicants who sign a 12-month lease by April 30, 2026",,,,,,https://www.amh.com/query?criteria=Atlanta%2C+GA,2026-04-05,2026-04-05,GA,Locust Grove,33.331888,-84.107959,,,GA16681
2026-04-05,AMH,"Atlanta, GA","507 Round Rock Trail, Lawrenceville, GA, 30045","Atlanta, GA",AMH-GA13729,4,2.5,1949,2095.0,2026-02-17,12 months,True,soft,"Special security deposit offer: Pay just 50% of your base rent as your security deposit (taxes and fees not included), valid for new applicants who sign a 12-month lease by April 30, 2026",,,,,,https://www.amh.com/query?criteria=Atlanta%2C+GA,2026-04-05,2026-04-05,GA,Lawrenceville,33.967414,-83.930083,,,GA13729
2026-04-05,AMH,"Atlanta, GA","910 Harbins View Drive, Dacula, GA, 30019","Atlanta, GA",AMH-GA18833,4,2.0,1933,2355.0,2026-04-03,12 months,True,soft,"Special security deposit offer: Pay just 50% of your base rent as your security deposit (taxes and fees not included), valid for new applicants who sign a 12-month lease by April 30, 2026",,,,,,https://www.amh.com/query?criteria=Atlanta%2C+GA,2026-04-05,2026-04-05,GA,Dacula,34.026017,-83.902374,,,GA18833
2026-04-05,AMH,"Atlanta, GA","263 Royal Crescent Terrace, Canton, GA, 30115","Atlanta, GA",AMH-GA15476,4,2.5,2731,2645.0,0001-01-01,12 months,True,soft,"Special security deposit offer: Pay just 50% of your base rent as your security deposit (taxes and fees not included), valid for new applicants who sign a 12-month lease by April 30, 2026",,,,,,https://www.amh.com/query?criteria=Atlanta%2C+GA,2026-04-05,2026-04-05,GA,Canton,34.191659,-84.443693,,,GA15476
2026-04-05,AMH,"Atlanta, GA","2586 Marleigh Farm Road, Kennesaw, GA, 30152","Atlanta, GA",AMH-GA13648,3,3.0,1884,2220.0,0001-01-01,12 months,True,soft,"Special security deposit offer: Pay just 50% of your base rent as your security deposit (taxes and fees not included), valid for new applicants who sign a 12-month lease by April 30, 2026",,,,,,https://www.amh.com/query?criteria=Atlanta%2C+GA,2026-04-05,2026-04-05,GA,Kennesaw,34.01733,-84.654602,,,GA13648
2026-04-05,AMH,"Atlanta, GA","121 Haeven Trail, Dallas, GA, 30132","Atlanta, GA",AMH-GA17501,4,2.5,2326,2095.0,0001-01-01,12 months,True,soft,"Special security deposit offer: Pay just 50% of your base rent as your security deposit (taxes and fees not included), valid for new applicants who sign a 12-month lease by April 30, 2026",,,,,,https://www.amh.com/query?criteria=Atlanta%2C+GA,2026-04-05,2026-04-05,GA,Dallas,33.933033,-84.839086,,,GA17501
2026-04-05,AMH,"Atlanta, GA","3335 N Winds Trail, Douglasville, GA, 30135","Atlanta, GA",AMH-GA17591,3,2.5,2060,2095.0,2026-03-30,12 months,True,soft,"Special security deposit offer: Pay just 50% of your base rent as your security deposit (taxes and fees not included), valid for new applicants who sign a 12-month lease by April 30, 2026",,,,,,https://www.amh.com/query?criteria=Atlanta%2C+GA,2026-04-05,2026-04-05,GA,Douglasville,33.685317,-84.692335,,,GA17591
2026-04-05,AMH,"Atlanta, GA","301 Boulder Run, Hiram, GA, 30141","Atlanta, GA",AMH-GA22056,3,2.5,1946,2155.0,2026-03-30,12 months,True,soft,"Special security deposit offer: Pay just 50% of your base rent as your security deposit (taxes and fees not included), valid for new applicants who sign a 12-month lease by April 30, 2026",,,,,,https://www.amh.com/query?criteria=Atlanta%2C+GA,2026-04-05,2026-04-05,GA,Hiram,33.877071,-84.779962,,,GA22056
2026-04-05,AMH,"Atlanta, GA","2988 Cherohala Point, Atlanta, GA, 30331","Atlanta, GA",AMH-GA13865,3,2.5,2151,2275.0,2026-04-02,12 months,True,soft,"Special security deposit offer: Pay just 50% of your base rent as your security deposit (taxes and fees not included), valid for new applicants who sign a 12-month lease by April 30, 2026",,,,,,https://www.amh.com/query?criteria=Atlanta%2C+GA,2026-04-05,2026-04-05,GA,Atlanta,33.678688,-84.623222,,,GA13865
2026-04-05,AMH,"Atlanta, GA","1712 Weatherbrook Circle, Lawrenceville, GA, 30043","Atlanta, GA",AMH-GA17281,4,2.5,2620,2450.0,2026-02-28,12 months,True,soft,"Special security deposit offer: Pay just 50% of your base rent as your security deposit (taxes and fees not included), valid for new applicants who sign a 12-month lease by April 30, 2026",,,,,,https://www.amh.com/query?criteria=Atlanta%2C+GA,2026-04-05,2026-04-05,GA,Lawrenceville,33.995926,-83.953815,,,GA17281
2026-04-05,AMH,"Atlanta, GA","208 Cole Court, Canton, GA, 30114","Atlanta, GA",AMH-GA16422,3,2.5,1720,2135.0,2026-04-03,12 months,True,soft,"Special security deposit offer: Pay just 50% of your base rent as your security deposit (taxes and fees not included), valid for new applicants who sign a 12-month lease by April 30, 2026",,,,,,https://www.amh.com/query?criteria=Atlanta%2C+GA,2026-04-05,2026-04-05,GA,Canton,34.212036,-84.509522,,,GA16422
2026-04-05,AMH,"Atlanta, GA","118 Hidden Creek Drive, Canton, GA, 30114","Atlanta, GA",AMH-GAA0004,3,2.5,1570,2050.0,0001-01-01,12 months,True,soft,"Special security deposit offer: Pay just 50% of your base rent as your security deposit (taxes and fees not included), valid for new applicants who sign a 12-month lease by April 30, 2026",,,,,,https://www.amh.com/query?criteria=Atlanta%2C+GA,2026-04-05,2026-04-05,GA,Canton,34.183056,-84.513465,,,GAA0004
2026-04-05,AMH,"Atlanta, GA","4939 Lake Park Lane, Acworth, GA, 30101","Atlanta, GA",AMH-GA13400,4,2.5,1800,2250.0,0001-01-01,12 months,True,soft,"Special security deposit offer: Pay just 50% of your base rent as your security deposit (taxes and fees not included), valid for new applicants who sign a 12-month lease by April 30, 2026",,,,,,https://www.amh.com/query?criteria=Atlanta%2C+GA,2026-04-05,2026-04-05,GA,Acworth,34.071928,-84.639536,,,GA13400
2026-04-05,AMH,"Atlanta, GA","17 Brookvalley Court, Dallas, GA, 30157","Atlanta, GA",AMH-GA13978,4,2.5,2188,2075.0,0001-01-01,12 months,True,soft,"Special security deposit offer: Pay just 50% of your base rent as your security deposit (taxes and fees not included), valid for new applicants who sign a 12-month lease by April 30, 2026",,,,,,https://www.amh.com/query?criteria=Atlanta%2C+GA,2026-04-05,2026-04-05,GA,Dallas,33.911808,-84.772446,,,GA13978
2026-04-05,AMH,"Atlanta, GA","131 The Esplanade Way SW, Loganville, GA, 30052","Atlanta, GA",AMH-GA14286,4,2.5,1700,2050.0,2026-02-06,12 months,True,soft,"Special security deposit offer: Pay just 50% of your base rent as your security deposit (taxes and fees not included), valid for new applicants who sign a 12-month lease by April 30, 2026",,,,,,https://www.amh.com/query?criteria=Atlanta%2C+GA,2026-04-05,2026-04-05,GA,Loganville,33.869041,-83.917328,,,GA14286
2026-04-05,AMH,"Atlanta, GA","1468 Aquamarine Drive, Loganville, GA, 30052","Atlanta, GA",AMH-GA22970,4,2.5,2068,2450.0,2026-01-21,12 months,True,soft,"Special security deposit offer: Pay just 50% of your base rent as your security deposit (taxes and fees not included), valid for new applicants who sign a 12-month lease by April 30, 2026",,,,,,https://www.amh.com/query?criteria=Atlanta%2C+GA,2026-04-05,2026-04-05,GA,Loganville,33.8932,-83.8881,,,GA22970
2026-04-05,AMH,"Atlanta, GA","222 N Fortune Way, Dallas, GA, 30157","Atlanta, GA",AMH-GA20430,3,2.5,1840,2040.0,0001-01-01,12 months,True,soft,"Special security deposit offer: Pay just 50% of your base rent as your security deposit (taxes and fees not included), valid for new applicants who sign a 12-month lease by April 30, 2026",,,,,,https://www.amh.com/query?criteria=Atlanta%2C+GA,2026-04-05,2026-04-05,GA,Dallas,33.911457,-84.890794,,,GA20430
2026-04-05,AMH,"Atlanta, GA","216 Latitia Lane, McDonough, GA, 30252","Atlanta, GA",AMH-GA22134,4,2.5,2449,2700.0,2026-03-13,12 months,True,soft,"Special security deposit offer: Pay just 50% of your base rent as your security deposit (taxes and fees not included), valid for new applicants who sign a 12-month lease by April 30, 2026",,,,,,https://www.amh.com/query?criteria=Atlanta%2C+GA,2026-04-05,2026-04-05,GA,McDonough,33.44025,-84.04047,,,GA22134
2026-04-05,AMH,"Atlanta, GA","4238 NW Brighton Way NW, Kennesaw, GA, 30144","Atlanta, GA",AMH-GA11059,4,2.5,2278,2480.0,2026-03-31,12 months,True,soft,"Special security deposit offer: Pay just 50% of your base rent as your security deposit (taxes and fees not included), valid for new applicants who sign a 12-month lease by April 30, 2026",,,,,,https://www.amh.com/query?criteria=Atlanta%2C+GA,2026-04-05,2026-04-05,GA,Kennesaw,34.057407,-84.635101,,,GA11059
2026-04-05,AMH,"Atlanta, GA","4813 Madison Point Circle, Austell, GA, 30106","Atlanta, GA",AMH-GA00134,4,3.5,3036,2655.0,2026-03-17,12 months,True,soft,"Special security deposit offer: Pay just 50% of your base rent as your security deposit (taxes and fees not included), valid for new applicants who sign a 12-month lease by April 30, 2026",,,,,,https://www.amh.com/query?criteria=Atlanta%2C+GA,2026-04-05,2026-04-05,GA,Austell,33.837891,-84.630028,,,GA00134
2026-04-05,AMH,"Atlanta, GA","1555 Brentwood Drive, Marietta, GA, 30062","Atlanta, GA",AMH-GA11009,6,3.5,3244,3225.0,2026-03-18,12 months,True,soft,"Special security deposit offer: Pay just 50% of your base rent as your security deposit (taxes and fees not included), valid for new applicants who sign a 12-month lease by April 30, 2026",,,,,,https://www.amh.com/query?criteria=Atlanta%2C+GA,2026-04-05,2026-04-05,GA,Marietta,33.98565,-84.50616,,,GA11009
2026-04-05,AMH,"Atlanta, GA","247 River Pass Court, Dacula, GA, 30019","Atlanta, GA",AMH-GA18683,4,3.0,2696,2385.0,2026-03-19,12 months,True,soft,"Special security deposit offer: Pay just 50% of your base rent as your security deposit (taxes and fees not included), valid for new applicants who sign a 12-month lease by April 30, 2026",,,,,,https://www.amh.com/query?criteria=Atlanta%2C+GA,2026-04-05,2026-04-05,GA,Dacula,34.00858,-83.89464,,,GA18683
2026-04-05,AMH,"Atlanta, GA","1386 Key Manor Lane, Lawrenceville, GA, 30045","Atlanta, GA",AMH-GA23035,3,2.5,1896,2195.0,2026-02-04,12 months,True,soft,"Special security deposit offer: Pay just 50% of your base rent as your security deposit (taxes and fees not included), valid for new applicants who sign a 12-month lease by April 30, 2026",,,,,,https://www.amh.com/query?criteria=Atlanta%2C+GA,2026-04-05,2026-04-05,GA,Lawrenceville,33.974213,-83.93985,,,GA23035
2026-04-05,AMH,"Atlanta, GA","1448 Aquamarine Drive, Loganville, GA, 30052","Atlanta, GA",AMH-GA22972,5,3.0,2502,2775.0,2026-02-13,12 months,True,soft,"Special security deposit offer: Pay just 50% of your base rent as your security deposit (taxes and fees not included), valid for new applicants who sign a 12-month lease by April 30, 2026",,,,,,https://www.amh.com/query?criteria=Atlanta%2C+GA,2026-04-05,2026-04-05,GA,Loganville,33.893219,-83.8884,,,GA22972
2026-04-05,AMH,"Atlanta, GA","3257 Tuggle Ives Drive, Buford, GA, 30519","Atlanta, GA",AMH-GAA0401,4,2.0,1923,2455.0,2026-03-31,12 months,True,soft,"Special security deposit offer: Pay just 50% of your base rent as your security deposit (taxes and fees not included), valid for new applicants who sign a 12-month lease by April 30, 2026",,,,,,https://www.amh.com/query?criteria=Atlanta%2C+GA,2026-04-05,2026-04-05,GA,Buford,34.10483,-83.88961,,,GAA0401
2026-04-05,AMH,"Atlanta, GA","1362 Weatherbrook Circle, Lawrenceville, GA, 30043","Atlanta, GA",AMH-GA17291,4,2.5,2620,2460.0,2026-03-12,12 months,True,soft,"Special security deposit offer: Pay just 50% of your base rent as your security deposit (taxes and fees not included), valid for new applicants who sign a 12-month lease by April 30, 2026",,,,,,https://www.amh.com/query?criteria=Atlanta%2C+GA,2026-04-05,2026-04-05,GA,Lawrenceville,33.998641,-83.955082,,,GA17291
2026-04-05,AMH,"Atlanta, GA","1702 Weatherbrook Circle, Lawrenceville, GA, 30043","Atlanta, GA",AMH-GA17282,4,2.5,2620,2450.0,2026-03-13,12 months,True,soft,"Special security deposit offer: Pay just 50% of your base rent as your security deposit (taxes and fees not included), valid for new applicants who sign a 12-month lease by April 30, 2026",,,,,,https://www.amh.com/query?criteria=Atlanta%2C+GA,2026-04-05,2026-04-05,GA,Lawrenceville,33.995874,-83.953666,,,GA17282
2026-04-05,AMH,"Atlanta, GA","593 Woodall Road, Stockbridge, GA, 30281","Atlanta, GA",AMH-GA19298,4,2.5,2090,2500.0,0001-01-01,12 months,True,soft,"Special security deposit offer: Pay just 50% of your base rent as your security deposit (taxes and fees not included), valid for new applicants who sign a 12-month lease by April 30, 2026",,,,,,https://www.amh.com/query?criteria=Atlanta%2C+GA,2026-04-05,2026-04-05,GA,Stockbridge,33.567991,-84.239717,,,GA19298
2026-04-05,AMH,"Atlanta, GA","1380 Ashlyn Court, Lawrenceville, GA, 30043","Atlanta, GA",AMH-GA19508,5,3.0,2850,3035.0,2026-03-17,12 months,True,soft,"Special security deposit offer: Pay just 50% of your base rent as your security deposit (taxes and fees not included), valid for new applicants who sign a 12-month lease by April 30, 2026",,,,,,https://www.amh.com/query?criteria=Atlanta%2C+GA,2026-04-05,2026-04-05,GA,Lawrenceville,34.0463,-83.9579,,,GA19508
2026-04-05,AMH,"Atlanta, GA","140 Cambridge Woods Drive, Mcdonough, GA, 30252","Atlanta, GA",AMH-GA17594,4,3.0,3231,2725.0,2026-03-26,12 months,True,soft,"Special security deposit offer: Pay just 50% of your base rent as your security deposit (taxes and fees not included), valid for new applicants who sign a 12-month lease by April 30, 2026",,,,,,https://www.amh.com/query?criteria=Atlanta%2C+GA,2026-04-05,2026-04-05,GA,Mcdonough,33.460421,-84.022163,,,GA17594
2026-04-05,AMH,"Atlanta, GA","406 Redwood Trail, Canton, GA, 30114","Atlanta, GA",AMH-GA18487,3,2.0,1377,2060.0,0001-01-01,12 months,True,soft,"Special security deposit offer: Pay just 50% of your base rent as your security deposit (taxes and fees not included), valid for new applicants who sign a 12-month lease by April 30, 2026",,,,,,https://www.amh.com/query?criteria=Atlanta%2C+GA,2026-04-05,2026-04-05,GA,Canton,34.196697,-84.535222,,,GA18487
2026-04-05,AMH,"Atlanta, GA","5223 Blue Mountain Drive, Auburn, GA, 30011","Atlanta, GA",AMH-GA19622,4,3.0,2513,2595.0,2026-03-10,12 months,True,soft,"Special security deposit offer: Pay just 50% of your base rent as your security deposit (taxes and fees not included), valid for new applicants who sign a 12-month lease by April 30, 2026",,,,,,https://www.amh.com/query?criteria=Atlanta%2C+GA,2026-04-05,2026-04-05,GA,Auburn,34.08488,-83.8521,,,GA19622
2026-04-05,AMH,"Atlanta, GA","2880 Camelot Woods Drive, Lawrenceville, GA, 30044","Atlanta, GA",AMH-GA14903,3,2.0,1704,2160.0,2026-03-23,12 months,True,soft,"Special security deposit offer: Pay just 50% of your base rent as your security deposit (taxes and fees not included), valid for new applicants who sign a 12-month lease by April 30, 2026",,,,,,https://www.amh.com/query?criteria=Atlanta%2C+GA,2026-04-05,2026-04-05,GA,Lawrenceville,33.934921,-84.086731,,,GA14903
2026-04-05,AMH,"Atlanta, GA","309 Timeless Walk, Stockbridge, GA, 30281","Atlanta, GA",AMH-GA15879,3,2.0,2416,2290.0,2026-03-30,12 months,True,soft,"Special security deposit offer: Pay just 50% of your base rent as your security deposit (taxes and fees not included), valid for new applicants who sign a 12-month lease by April 30, 2026",,,,,,https://www.amh.com/query?criteria=Atlanta%2C+GA,2026-04-05,2026-04-05,GA,Stockbridge,33.529443,-84.27593,,,GA15879
2026-04-05,AMH,"Atlanta, GA","705 Saint Charles Avenue, Dallas, GA, 30157","Atlanta, GA",AMH-GA16697,3,2.0,1338,1805.0,0001-01-01,12 months,True,soft,"Special security deposit offer: Pay just 50% of your base rent as your security deposit (taxes and fees not included), valid for new applicants who sign a 12-month lease by April 30, 2026",,,,,,https://www.amh.com/query?criteria=Atlanta%2C+GA,2026-04-05,2026-04-05,GA,Dallas,33.911114,-84.846458,,,GA16697
2026-04-05,AMH,"Atlanta, GA","2341 Suwanee Pointe Drive, Lawrenceville, GA, 30043","Atlanta, GA",AMH-GA14099,4,2.5,1803,2180.0,2026-03-12,12 months,True,soft,"Special security deposit offer: Pay just 50% of your base rent as your security deposit (taxes and fees not included), valid for new applicants who sign a 12-month lease by April 30, 2026",,,,,,https://www.amh.com/query?criteria=Atlanta%2C+GA,2026-04-05,2026-04-05,GA,Lawrenceville,34.03501,-84.000265,,,GA14099
2026-04-05,AMH,"Atlanta, GA","314 Golucke Way, McDonough, GA, 30252","Atlanta, GA",AMH-GA22138,4,2.5,2449,2700.0,2026-03-24,12 months,True,soft,"Special security deposit offer: Pay just 50% of your base rent as your security deposit (taxes and fees not included), valid for new applicants who sign a 12-month lease by April 30, 2026",,,,,,https://www.amh.com/query?criteria=Atlanta%2C+GA,2026-04-05,2026-04-05,GA,McDonough,33.44026,-84.03894,,,GA22138
2026-04-05,AMH,"Atlanta, GA","1222 Joe Brogdon Ln, Buford, GA, 30518","Atlanta, GA",AMH-GA00336,5,3.0,3076,3065.0,2026-03-24,12 months,True,soft,"Special security deposit offer: Pay just 50% of your base rent as your security deposit (taxes and fees not included), valid for new applicants who sign a 12-month lease by April 30, 2026",,,,,,https://www.amh.com/query?criteria=Atlanta%2C+GA,2026-04-05,2026-04-05,GA,Buford,34.084778,-84.019356,,,GA00336
2026-04-05,AMH,"Atlanta, GA","185 Rosemoore Drive, Covington, GA, 30014","Atlanta, GA",AMH-GA18129,4,2.5,2923,2420.0,2025-12-05,12 months,True,soft,"Special security deposit offer: Pay just 50% of your base rent as your security deposit (taxes and fees not included), valid for new applicants who sign a 12-month lease by April 30, 2026",,,,,,https://www.amh.com/query?criteria=Atlanta%2C+GA,2026-04-05,2026-04-05,GA,Covington,33.561117,-83.831903,,,GA18129
2026-04-05,AMH,"Atlanta, GA","6855 River Island Circle, Buford, GA, 30518","Atlanta, GA",AMH-GAA0064,4,3.0,3074,2775.0,2026-02-05,12 months,True,soft,"Special security deposit offer: Pay just 50% of your base rent as your security deposit (taxes and fees not included), valid for new applicants who sign a 12-month lease by April 30, 2026",,,,,,https://www.amh.com/query?criteria=Atlanta%2C+GA,2026-04-05,2026-04-05,GA,Buford,34.14517,-84.07149,,,GAA0064
2026-04-05,AMH,"Atlanta, GA","3006 Dunlin Fields Road, Lawrenceville, GA, 30044","Atlanta, GA",AMH-GA14233,3,2.5,1642,2095.0,2026-03-16,12 months,True,soft,"Special security deposit offer: Pay just 50% of your base rent as your security deposit (taxes and fees not included), valid for new applicants who sign a 12-month lease by April 30, 2026",,,,,,https://www.amh.com/query?criteria=Atlanta%2C+GA,2026-04-05,2026-04-05,GA,Lawrenceville,33.928223,-84.08934,,,GA14233
2026-04-05,AMH,"Atlanta, GA","141 McBee Street, Dallas, GA, 30132","Atlanta, GA",AMH-GA17457,4,2.5,2085,2060.0,0001-01-01,12 months,True,soft,"Special security deposit offer: Pay just 50% of your base rent as your security deposit (taxes and fees not included), valid for new applicants who sign a 12-month lease by April 30, 2026",,,,,,https://www.amh.com/query?criteria=Atlanta%2C+GA,2026-04-05,2026-04-05,GA,Dallas,33.925962,-84.84872,,,GA17457
2026-04-05,AMH,"Atlanta, GA","134 McBee Street, Dallas, GA, 30132","Atlanta, GA",AMH-GA17441,4,2.5,2085,2255.0,2026-03-20,12 months,True,soft,"Special security deposit offer: Pay just 50% of your base rent as your security deposit (taxes and fees not included), valid for new applicants who sign a 12-month lease by April 30, 2026",,,,,,https://www.amh.com/query?criteria=Atlanta%2C+GA,2026-04-05,2026-04-05,GA,Dallas,33.925233,-84.849029,,,GA17441
2026-04-05,AMH,"Atlanta, GA","176 Al Jennah Boulevard, Locust Grove, GA, 30248","Atlanta, GA",AMH-GA19152,4,2.5,2093,2180.0,2026-02-19,12 months,True,soft,"Special security deposit offer: Pay just 50% of your base rent as your security deposit (taxes and fees not included), valid for new applicants who sign a 12-month lease by April 30, 2026",,,,,,https://www.amh.com/query?criteria=Atlanta%2C+GA,2026-04-05,2026-04-05,GA,Locust Grove,33.328277,-84.094745,,,GA19152
2026-04-05,AMH,"Atlanta, GA","116 Punderson Drive, McDonough, GA, 30252","Atlanta, GA",AMH-GA22128,4,2.5,2449,2700.0,2026-03-02,12 months,True,soft,"Special security deposit offer: Pay just 50% of your base rent as your security deposit (taxes and fees not included), valid for new applicants who sign a 12-month lease by April 30, 2026",,,,,,https://www.amh.com/query?criteria=Atlanta%2C+GA,2026-04-05,2026-04-05,GA,McDonough,33.43895,-84.03998,,,GA22128
2026-04-05,AMH,"Atlanta, GA","1755 Heatherton Road, Dacula, GA, 30019","Atlanta, GA",AMH-GA21267,3,2.0,1799,2340.0,2026-03-16,12 months,True,soft,"Special security deposit offer: Pay just 50% of your base rent as your security deposit (taxes and fees not included), valid for new applicants who sign a 12-month lease by April 30, 2026",,,,,,https://www.amh.com/query?criteria=Atlanta%2C+GA,2026-04-05,2026-04-05,GA,Dacula,34.027608,-83.925874,,,GA21267
2026-04-05,AMH,"Atlanta, GA","2207 Lazy Days Road, Dacula, GA, 30019","Atlanta, GA",AMH-GAA0051,4,2.5,2748,2670.0,2026-03-19,12 months,True,soft,"Special security deposit offer: Pay just 50% of your base rent as your security deposit (taxes and fees not included), valid for new applicants who sign a 12-month lease by April 30, 2026",,,,,,https://www.amh.com/query?criteria=Atlanta%2C+GA,2026-04-05,2026-04-05,GA,Dacula,34.054214,-83.931602,,,GAA0051
2026-04-05,AMH,"Atlanta, GA","1152 Thomas Daniel Way, Lawrenceville, GA, 30045","Atlanta, GA",AMH-GA00262,5,3.0,2782,2685.0,2026-03-16,12 months,True,soft,"Special security deposit offer: Pay just 50% of your base rent as your security deposit (taxes and fees not included), valid for new applicants who sign a 12-month lease by April 30, 2026",,,,,,https://www.amh.com/query?criteria=Atlanta%2C+GA,2026-04-05,2026-04-05,GA,Lawrenceville,33.927352,-83.939785,,,GA00262
2026-04-05,AMH,"Atlanta, GA","186 Dean Way, Winder, GA, 30680","Atlanta, GA",AMH-GA12416,3,2.0,1887,2085.0,2026-03-16,12 months,True,soft,"Special security deposit offer: Pay just 50% of your base rent as your security deposit (taxes and fees not included), valid for new applicants who sign a 12-month lease by April 30, 2026",,,,,,https://www.amh.com/query?criteria=Atlanta%2C+GA,2026-04-05,2026-04-05,GA,Winder,34.013062,-83.798754,,,GA12416
2026-04-05,AMH,"Atlanta, GA","3270 Hampton Trace Court, Buford, GA, 30519","Atlanta, GA",AMH-GA12107,3,2.0,1725,2140.0,2026-03-16,12 months,True,soft,"Special security deposit offer: Pay just 50% of your base rent as your security deposit (taxes and fees not included), valid for new applicants who sign a 12-month lease by April 30, 2026",,,,,,https://www.amh.com/query?criteria=Atlanta%2C+GA,2026-04-05,2026-04-05,GA,Buford,34.078033,-83.927826,,,GA12107
2026-04-05,AMH,"Atlanta, GA","2006 Farm Hill Court, Stockbridge, GA, 30281","Atlanta, GA",AMH-GA13184,4,2.0,1913,2060.0,2026-02-09,12 months,True,soft,"Special security deposit offer: Pay just 50% of your base rent as your security deposit (taxes and fees not included), valid for new applicants who sign a 12-month lease by April 30, 2026",,,,,,https://www.amh.com/query?criteria=Atlanta%2C+GA,2026-04-05,2026-04-05,GA,Stockbridge,33.515793,-84.255913,,,GA13184
2026-04-05,AMH,"Atlanta, GA","92 Brookvalley Crossing, Dallas, GA, 30157","Atlanta, GA",AMH-GA21315,4,2.5,2338,2150.0,0001-01-01,12 months,True,soft,"Special security deposit offer: Pay just 50% of your base rent as your security deposit (taxes and fees not included), valid for new applicants who sign a 12-month lease by April 30, 2026",,,,,,https://www.amh.com/query?criteria=Atlanta%2C+GA,2026-04-05,2026-04-05,GA,Dallas,33.910759,-84.77191,,,GA21315
2026-04-05,AMH,"Atlanta, GA","223 Vernon Walk, Mcdonough, GA, 30252","Atlanta, GA",AMH-GA14919,4,2.0,2306,2380.0,2026-03-06,12 months,True,soft,"Special security deposit offer: Pay just 50% of your base rent as your security deposit (taxes and fees not included), valid for new applicants who sign a 12-month lease by April 30, 2026",,,,,,https://www.amh.com/query?criteria=Atlanta%2C+GA,2026-04-05,2026-04-05,GA,Mcdonough,33.456272,-84.087868,,,GA14919
2026-04-05,AMH,"Atlanta, GA","3024 Estuary Ridge, Acworth, GA, 30101","Atlanta, GA",AMH-GA12915,4,3.0,2186,2235.0,0001-01-01,12 months,True,soft,"Special security deposit offer: Pay just 50% of your base rent as your security deposit (taxes and fees not included), valid for new applicants who sign a 12-month lease by April 30, 2026",,,,,,https://www.amh.com/query?criteria=Atlanta%2C+GA,2026-04-05,2026-04-05,GA,Acworth,34.069949,-84.636068,,,GA12915
2026-04-05,AMH,"Atlanta, GA","1014 Elsberry Drive, Woodstock, GA, 30189","Atlanta, GA",AMH-GA13665,3,2.5,1932,2270.0,0001-01-01,12 months,True,soft,"Special security deposit offer: Pay just 50% of your base rent as your security deposit (taxes and fees not included), valid for new applicants who sign a 12-month lease by April 30, 2026",,,,,,https://www.amh.com/query?criteria=Atlanta%2C+GA,2026-04-05,2026-04-05,GA,Woodstock,34.147476,-84.582291,,,GA13665
2026-04-05,AMH,"Atlanta, GA","2617 Woodford Lane, Buford, GA, 30519","Atlanta, GA",AMH-GA14298,4,2.0,1818,2260.0,2026-03-05,12 months,True,soft,"Special security deposit offer: Pay just 50% of your base rent as your security deposit (taxes and fees not included), valid for new applicants who sign a 12-month lease by April 30, 2026",,,,,,https://www.amh.com/query?criteria=Atlanta%2C+GA,2026-04-05,2026-04-05,GA,Buford,34.059463,-83.951458,,,GA14298
2026-04-05,AMH,"Atlanta, GA","3080 Rusticwood Drive, Snellville, GA, 30078","Atlanta, GA",AMH-GA17164,4,2.5,3100,2370.0,0001-01-01,12 months,True,soft,"Special security deposit offer: Pay just 50% of your base rent as your security deposit (taxes and fees not included), valid for new applicants who sign a 12-month lease by April 30, 2026",,,,,,https://www.amh.com/query?criteria=Atlanta%2C+GA,2026-04-05,2026-04-05,GA,Snellville,33.83199,-84.03568,,,GA17164
2026-04-05,AMH,"Atlanta, GA","4145 Ridgefair Drive, Cumming, GA, 30040","Atlanta, GA",AMH-GA12884,3,2.5,1752,2245.0,2026-02-19,12 months,True,soft,"Special security deposit offer: Pay just 50% of your base rent as your security deposit (taxes and fees not included), valid for new applicants who sign a 12-month lease by April 30, 2026",,,,,,https://www.amh.com/query?criteria=Atlanta%2C+GA,2026-04-05,2026-04-05,GA,Cumming,34.186008,-84.156242,,,GA12884
2026-04-05,AMH,"Atlanta, GA","3328 O'Kelly Drive, Loganville, GA, 30052","Atlanta, GA",AMH-GA16905,5,4.0,2675,2620.0,2026-01-07,12 months,True,soft,"Special security deposit offer: Pay just 50% of your base rent as your security deposit (taxes and fees not included), valid for new applicants who sign a 12-month lease by April 30, 2026",,,,,,https://www.amh.com/query?criteria=Atlanta%2C+GA,2026-04-05,2026-04-05,GA,Loganville,33.85893,-83.93019,,,GA16905
2026-04-05,AMH,"Atlanta, GA","714 Ridgewood Way, Canton, GA, 30114","Atlanta, GA",AMH-GA14400,3,2.5,2532,2245.0,2026-02-20,12 months,True,soft,"Special security deposit offer: Pay just 50% of your base rent as your security deposit (taxes and fees not included), valid for new applicants who sign a 12-month lease by April 30, 2026",,,,,,https://www.amh.com/query?criteria=Atlanta%2C+GA,2026-04-05,2026-04-05,GA,Canton,34.257572,-84.499977,,,GA14400
2026-04-05,AMH,"Atlanta, GA","1785 Summit Edge Circle, Loganville, GA, 30052","Atlanta, GA",AMH-GA17831,3,2.5,1975,2160.0,0001-01-01,12 months,True,soft,"Special security deposit offer: Pay just 50% of your base rent as your security deposit (taxes and fees not included), valid for new applicants who sign a 12-month lease by April 30, 2026",,,,,,https://www.amh.com/query?criteria=Atlanta%2C+GA,2026-04-05,2026-04-05,GA,Loganville,33.841383,-83.977999,,,GA17831
2026-04-05,AMH,"Atlanta, GA","7860 Keepsake Lane, Flowery Branch, GA, 30542","Atlanta, GA",AMH-GA14418,3,2.5,2196,2320.0,2026-03-05,12 months,True,soft,"Special security deposit offer: Pay just 50% of your base rent as your security deposit (taxes and fees not included), valid for new applicants who sign a 12-month lease by April 30, 2026",,,,,,https://www.amh.com/query?criteria=Atlanta%2C+GA,2026-04-05,2026-04-05,GA,Flowery Branch,34.135945,-83.901977,,,GA14418
2026-04-05,AMH,"Atlanta, GA","6638 Shady Ridge Lane, Austell, GA, 30168","Atlanta, GA",AMH-GA13855,3,2.0,1478,1975.0,0001-01-01,12 months,True,soft,"Special security deposit offer: Pay just 50% of your base rent as your security deposit (taxes and fees not included), valid for new applicants who sign a 12-month lease by April 30, 2026",,,,,,https://www.amh.com/query?criteria=Atlanta%2C+GA,2026-04-05,2026-04-05,GA,Austell,33.790977,-84.589165,,,GA13855
2026-04-05,AMH,"Atlanta, GA","323 Stoney Hollow Road, Canton, GA, 30114","Atlanta, GA",AMH-GA19965,4,3.0,2085,2290.0,2026-02-27,12 months,True,soft,"Special security deposit offer: Pay just 50% of your base rent as your security deposit (taxes and fees not included), valid for new applicants who sign a 12-month lease by April 30, 2026",,,,,,https://www.amh.com/query?criteria=Atlanta%2C+GA,2026-04-05,2026-04-05,GA,Canton,34.28557,-84.455174,,,GA19965
2026-04-05,AMH,"Atlanta, GA","2515 Beal Street, Snellville, GA, 30078","Atlanta, GA",AMH-GA15742,4,2.5,2697,2365.0,2026-02-17,12 months,True,soft,"Special security deposit offer: Pay just 50% of your base rent as your security deposit (taxes and fees not included), valid for new applicants who sign a 12-month lease by April 30, 2026",,,,,,https://www.amh.com/query?criteria=Atlanta%2C+GA,2026-04-05,2026-04-05,GA,Snellville,33.84978,-84.011418,,,GA15742
2026-04-05,AMH,"Atlanta, GA","70 Camden Way, Fairburn, GA, 30213","Atlanta, GA",AMH-GA15386,3,2.0,1624,2050.0,2026-04-01,12 months,True,soft,"Special security deposit offer: Pay just 50% of your base rent as your security deposit (taxes and fees not included), valid for new applicants who sign a 12-month lease by April 30, 2026",,,,,,https://www.amh.com/query?criteria=Atlanta%2C+GA,2026-04-05,2026-04-05,GA,Fairburn,33.536731,-84.566256,,,GA15386
2026-04-05,AMH,"Atlanta, GA","425 Tell Circle, Atlanta, GA, 30331","Atlanta, GA",AMH-GA15052,3,2.0,3036,2380.0,2026-01-30,12 months,True,soft,"Special security deposit offer: Pay just 50% of your base rent as your security deposit (taxes and fees not included), valid for new applicants who sign a 12-month lease by April 30, 2026",,,,,,https://www.amh.com/query?criteria=Atlanta%2C+GA,2026-04-05,2026-04-05,GA,Atlanta,33.682693,-84.59742,,,GA15052
2026-04-05,AMH,"Atlanta, GA","2912 Canopy Circle, Snellville, GA, 30039","Atlanta, GA",AMH-GAA0245,4,2.5,2246,2230.0,2026-02-19,12 months,True,soft,"Special security deposit offer: Pay just 50% of your base rent as your security deposit (taxes and fees not included), valid for new applicants who sign a 12-month lease by April 30, 2026",,,,,,https://www.amh.com/query?criteria=Atlanta%2C+GA,2026-04-05,2026-04-05,GA,Snellville,33.810959,-84.001778,,,GAA0245
2026-04-05,AMH,"Atlanta, GA","4845 Chasestone Court, Powder Springs, GA, 30127","Atlanta, GA",AMH-GA12846,3,2.0,1344,1850.0,0001-01-01,12 months,True,soft,"Special security deposit offer: Pay just 50% of your base rent as your security deposit (taxes and fees not included), valid for new applicants who sign a 12-month lease by April 30, 2026",,,,,,https://www.amh.com/query?criteria=Atlanta%2C+GA,2026-04-05,2026-04-05,GA,Powder Springs,33.921356,-84.699615,,,GA12846
2026-04-05,AMH,"Atlanta, GA","631 Sunflower Drive, Canton, GA, 30114","Atlanta, GA",AMH-GA22849,3,2.5,1824,2160.0,2026-02-11,12 months,True,soft,"Special security deposit offer: Pay just 50% of your base rent as your security deposit (taxes and fees not included), valid for new applicants who sign a 12-month lease by April 30, 2026",,,,,,https://www.amh.com/query?criteria=Atlanta%2C+GA,2026-04-05,2026-04-05,GA,Canton,34.283697,-84.454089,,,GA22849
2026-04-05,AMH,"Atlanta, GA","2632 Back Creek Chase, Dacula, GA, 30019","Atlanta, GA",AMH-GA15857,4,2.5,2723,2460.0,2026-02-06,12 months,True,soft,"Special security deposit offer: Pay just 50% of your base rent as your security deposit (taxes and fees not included), valid for new applicants who sign a 12-month lease by April 30, 2026",,,,,,https://www.amh.com/query?criteria=Atlanta%2C+GA,2026-04-05,2026-04-05,GA,Dacula,34.036582,-83.92333,,,GA15857
2026-04-05,AMH,"Atlanta, GA","3892 Refinement Way, Douglasville, GA, 30135","Atlanta, GA",AMH-GA16244,3,3.0,2355,2190.0,2026-02-24,12 months,True,soft,"Special security deposit offer: Pay just 50% of your base rent as your security deposit (taxes and fees not included), valid for new applicants who sign a 12-month lease by April 30, 2026",,,,,,https://www.amh.com/query?criteria=Atlanta%2C+GA,2026-04-05,2026-04-05,GA,Douglasville,33.700956,-84.749899,,,GA16244
2026-04-05,AMH,"Atlanta, GA","2265 Sunbrook Trail, Acworth, GA, 30101","Atlanta, GA",AMH-GA14883,3,2.0,1685,2075.0,2026-02-03,12 months,True,soft,"Special security deposit offer: Pay just 50% of your base rent as your security deposit (taxes and fees not included), valid for new applicants who sign a 12-month lease by April 30, 2026",,,,,,https://www.amh.com/query?criteria=Atlanta%2C+GA,2026-04-05,2026-04-05,GA,Acworth,34.01112,-84.696945,,,GA14883
2026-04-05,AMH,"Atlanta, GA","117 Bainbridge Court, Dallas, GA, 30132","Atlanta, GA",AMH-GA17598,3,2.5,2162,1910.0,0001-01-01,12 months,True,soft,"Special security deposit offer: Pay just 50% of your base rent as your security deposit (taxes and fees not included), valid for new applicants who sign a 12-month lease by April 30, 2026",,,,,,https://www.amh.com/query?criteria=Atlanta%2C+GA,2026-04-05,2026-04-05,GA,Dallas,33.915543,-84.823693,,,GA17598
2026-04-05,AMH,"Atlanta, GA","100 Punderson Drive, McDonough, GA, 30252","Atlanta, GA",AMH-GA22124,4,2.5,2449,2700.0,2026-02-20,12 months,True,soft,"Special security deposit offer: Pay just 50% of your base rent as your security deposit (taxes and fees not included), valid for new applicants who sign a 12-month lease by April 30, 2026",,,,,,https://www.amh.com/query?criteria=Atlanta%2C+GA,2026-04-05,2026-04-05,GA,McDonough,33.43895,-84.0412,,,GA22124
2026-04-05,AMH,"Atlanta, GA","4669 Liberty Square Drive, Acworth, GA, 30101","Atlanta, GA",AMH-GA12191,3,2.5,1890,2205.0,0001-01-01,12 months,True,soft,"Special security deposit offer: Pay just 50% of your base rent as your security deposit (taxes and fees not included), valid for new applicants who sign a 12-month lease by April 30, 2026",,,,,,https://www.amh.com/query?criteria=Atlanta%2C+GA,2026-04-05,2026-04-05,GA,Acworth,34.076366,-84.681076,,,GA12191
2026-04-05,AMH,"Atlanta, GA","348 Yellow Iris Road, Grayson, GA, 30017","Atlanta, GA",AMH-GA15954,4,2.0,3724,2630.0,2026-01-31,12 months,True,soft,"Special security deposit offer: Pay just 50% of your base rent as your security deposit (taxes and fees not included), valid for new applicants who sign a 12-month lease by April 30, 2026",,,,,,https://www.amh.com/query?criteria=Atlanta%2C+GA,2026-04-05,2026-04-05,GA,Grayson,33.910255,-83.931915,,,GA15954
2026-04-05,AMH,"Atlanta, GA","361 Ash Trace Lane, Grayson, GA, 30017","Atlanta, GA",AMH-GA14337,3,2.5,1970,2095.0,2026-01-28,12 months,True,soft,"Special security deposit offer: Pay just 50% of your base rent as your security deposit (taxes and fees not included), valid for new applicants who sign a 12-month lease by April 30, 2026",,,,,,https://www.amh.com/query?criteria=Atlanta%2C+GA,2026-04-05,2026-04-05,GA,Grayson,33.90966,-83.962883,,,GA14337
2026-04-05,AMH,"Atlanta, GA","1172 Cumberland Creek Way, Marietta, GA, 30008","Atlanta, GA",AMH-GA12457,4,3.0,2190,2495.0,0001-01-01,12 months,True,soft,"Special security deposit offer: Pay just 50% of your base rent as your security deposit (taxes and fees not included), valid for new applicants who sign a 12-month lease by April 30, 2026",,,,,,https://www.amh.com/query?criteria=Atlanta%2C+GA,2026-04-05,2026-04-05,GA,Marietta,33.900238,-84.595009,,,GA12457
2026-04-05,AMH,"Atlanta, GA","1548 Aquamarine Drive, Loganville, GA, 30052","Atlanta, GA",AMH-GA23017,5,3.0,2502,2775.0,2025-12-18,12 months,True,soft,"Special security deposit offer: Pay just 50% of your base rent as your security deposit (taxes and fees not included), valid for new applicants who sign a 12-month lease by April 30, 2026",,,,,,https://www.amh.com/query?criteria=Atlanta%2C+GA,2026-04-05,2026-04-05,GA,Loganville,33.893367,-83.8864,,,GA23017
2026-04-05,AMH,"Atlanta, GA","1488 Aquamarine Drive, Loganville, GA, 30052","Atlanta, GA",AMH-GA22968,5,3.0,2502,2775.0,2026-01-09,12 months,True,soft,"Special security deposit offer: Pay just 50% of your base rent as your security deposit (taxes and fees not included), valid for new applicants who sign a 12-month lease by April 30, 2026",,,,,,https://www.amh.com/query?criteria=Atlanta%2C+GA,2026-04-05,2026-04-05,GA,Loganville,33.893181,-83.8877,,,GA22968
2026-04-05,AMH,"Atlanta, GA","3801 Bogan Mill Road, Buford, GA, 30519","Atlanta, GA",AMH-GA12516,4,2.5,2298,2195.0,2025-12-05,12 months,True,soft,"Special security deposit offer: Pay just 50% of your base rent as your security deposit (taxes and fees not included), valid for new applicants who sign a 12-month lease by April 30, 2026",,,,,,https://www.amh.com/query?criteria=Atlanta%2C+GA,2026-04-05,2026-04-05,GA,Buford,34.101243,-83.951429,,,GA12516
2026-04-05,AMH,"Atlanta, GA","1238 Wood Iris Lane, Lawrenceville, GA, 30045","Atlanta, GA",AMH-GA00509,4,3.0,3165,2530.0,2025-12-08,12 months,True,soft,"Special security deposit offer: Pay just 50% of your base rent as your security deposit (taxes and fees not included), valid for new applicants who sign a 12-month lease by April 30, 2026",,,,,,https://www.amh.com/query?criteria=Atlanta%2C+GA,2026-04-05,2026-04-05,GA,Lawrenceville,33.911953,-83.991142,,,GA00509
2026-04-05,AMH,"Atlanta, GA","1539 Aquamarine Drive, Loganville, GA, 30052","Atlanta, GA",AMH-GA22964,5,3.0,2502,2775.0,2025-12-17,12 months,True,soft,"Special security deposit offer: Pay just 50% of your base rent as your security deposit (taxes and fees not included), valid for new applicants who sign a 12-month lease by April 30, 2026",,,,,,https://www.amh.com/query?criteria=Atlanta%2C+GA,2026-04-05,2026-04-05,GA,Loganville,33.893044,-83.8864,,,GA22964
2026-04-05,AMH,"Atlanta, GA","1559 Aquamarine Drive, Loganville, GA, 30052","Atlanta, GA",AMH-GA22962,4,2.5,2293,2550.0,2025-12-12,12 months,True,soft,"Special security deposit offer: Pay just 50% of your base rent as your security deposit (taxes and fees not included), valid for new applicants who sign a 12-month lease by April 30, 2026",,,,,,https://www.amh.com/query?criteria=Atlanta%2C+GA,2026-04-05,2026-04-05,GA,Loganville,33.893275,-83.886,,,GA22962
2026-04-05,AMH,"Atlanta, GA","1498 Aquamarine Drive, Loganville, GA, 30052","Atlanta, GA",AMH-GA22967,4,2.5,2293,2550.0,2025-11-24,12 months,True,soft,"Special security deposit offer: Pay just 50% of your base rent as your security deposit (taxes and fees not included), valid for new applicants who sign a 12-month lease by April 30, 2026",,,,,,https://www.amh.com/query?criteria=Atlanta%2C+GA,2026-04-05,2026-04-05,GA,Loganville,33.893178,-83.8875,,,GA22967
2026-04-05,AMH,"Atlanta, GA","1529 Aquamarine Drive, Loganville, GA, 30052","Atlanta, GA",AMH-GA22965,4,2.5,2293,2550.0,2025-11-24,12 months,True,soft,"Special security deposit offer: Pay just 50% of your base rent as your security deposit (taxes and fees not included), valid for new applicants who sign a 12-month lease by April 30, 2026",,,,,,https://www.amh.com/query?criteria=Atlanta%2C+GA,2026-04-05,2026-04-05,GA,Loganville,33.892994,-83.8866,,,GA22965
2026-04-05,AMH,"Atlanta, GA","5177 Rosewood Place, Fairburn, GA, 30213","Atlanta, GA",AMH-GA15381,4,2.5,2458,2365.0,2026-03-20,12 months,True,soft,"Special security deposit offer: Pay just 50% of your base rent as your security deposit (taxes and fees not included), valid for new applicants who sign a 12-month lease by April 30, 2026",,,,,,https://www.amh.com/query?criteria=Atlanta%2C+GA,2026-04-05,2026-04-05,GA,Fairburn,33.611024,-84.594248,,,GA15381
2026-04-05,AMH,"Atlanta, GA","1499 Aquamarine Drive, Loganville, GA, 30052","Atlanta, GA",AMH-GA22891,4,2.5,2293,2550.0,2025-11-07,12 months,True,soft,"Special security deposit offer: Pay just 50% of your base rent as your security deposit (taxes and fees not included), valid for new applicants who sign a 12-month lease by April 30, 2026",,,,,,https://www.amh.com/query?criteria=Atlanta%2C+GA,2026-04-05,2026-04-05,GA,Loganville,33.8929,-83.8875,,,GA22891
2026-04-05,AMH,"Atlanta, GA","1300 Summit Point Lane, Snellville, GA, 30078","Atlanta, GA",AMH-GA16112,4,2.5,2094,2290.0,2026-06-02,12 months,True,soft,"Special security deposit offer: Pay just 50% of your base rent as your security deposit (taxes and fees not included), valid for new applicants who sign a 12-month lease by April 30, 2026",,,,,,https://www.amh.com/query?criteria=Atlanta%2C+GA,2026-04-05,2026-04-05,GA,Snellville,33.857684,-83.967239,,,GA16112
2026-04-05,AMH,"Atlanta, GA","2835 Shane Drive, Snellville, GA, 30078","Atlanta, GA",AMH-GA15625,3,2.0,1416,1925.0,2026-06-02,12 months,True,soft,"Special security deposit offer: Pay just 50% of your base rent as your security deposit (taxes and fees not included), valid for new applicants who sign a 12-month lease by April 30, 2026",,,,,,https://www.amh.com/query?criteria=Atlanta%2C+GA,2026-04-05,2026-04-05,GA,Snellville,33.834185,-84.028519,,,GA15625
2026-04-05,AMH,"Atlanta, GA","3207 Trinity Grove Drive, Dacula, GA, 30019","Atlanta, GA",AMH-GA18569,4,3.5,2890,2965.0,2026-05-31,12 months,True,soft,"Special security deposit offer: Pay just 50% of your base rent as your security deposit (taxes and fees not included), valid for new applicants who sign a 12-month lease by April 30, 2026",,,,,,https://www.amh.com/query?criteria=Atlanta%2C+GA,2026-04-05,2026-04-05,GA,Dacula,34.050814,-83.916774,,,GA18569
2026-04-05,AMH,"Atlanta, GA","1454 Chamirey Dr SW, Marietta, GA, 30008","Atlanta, GA",AMH-GA00553,5,3.5,2254,2895.0,2026-05-15,12 months,True,soft,"Special security deposit offer: Pay just 50% of your base rent as your security deposit (taxes and fees not included), valid for new applicants who sign a 12-month lease by April 30, 2026",,,,,,https://www.amh.com/query?criteria=Atlanta%2C+GA,2026-04-05,2026-04-05,GA,Marietta,33.904266,-84.595779,,,GA00553
2026-04-05,AMH,"Atlanta, GA","311 Barberry Place, Canton, GA, 30114","Atlanta, GA",AMH-GA15910,3,2.5,1882,2195.0,2026-05-15,12 months,True,soft,"Special security deposit offer: Pay just 50% of your base rent as your security deposit (taxes and fees not included), valid for new applicants who sign a 12-month lease by April 30, 2026",,,,,,https://www.amh.com/query?criteria=Atlanta%2C+GA,2026-04-05,2026-04-05,GA,Canton,34.188344,-84.513352,,,GA15910
2026-04-05,AMH,"Atlanta, GA","2607 Peach Shoals Circle, Dacula, GA, 30019","Atlanta, GA",AMH-GA23601,4,2.5,2452,2330.0,2026-04-23,12 months,True,soft,"Special security deposit offer: Pay just 50% of your base rent as your security deposit (taxes and fees not included), valid for new applicants who sign a 12-month lease by April 30, 2026",,,,,,https://www.amh.com/query?criteria=Atlanta%2C+GA,2026-04-05,2026-04-05,GA,Dacula,34.004562,-83.928624,,,GA23601
2026-04-05,AMH,"Atlanta, GA","710 Ridgewood Way, Canton, GA, 30114","Atlanta, GA",AMH-GA15634,3,2.5,1692,2095.0,2026-04-18,12 months,True,soft,"Special security deposit offer: Pay just 50% of your base rent as your security deposit (taxes and fees not included), valid for new applicants who sign a 12-month lease by April 30, 2026",,,,,,https://www.amh.com/query?criteria=Atlanta%2C+GA,2026-04-05,2026-04-05,GA,Canton,34.257736,-84.499329,,,GA15634
2026-04-05,AMH,"Atlanta, GA","51 Wayne Meadows Court, Douglasville, GA, 30134","Atlanta, GA",AMH-GA17137,5,2.0,2980,2495.0,2026-04-10,12 months,True,soft,"Special security deposit offer: Pay just 50% of your base rent as your security deposit (taxes and fees not included), valid for new applicants who sign a 12-month lease by April 30, 2026",,,,,,https://www.amh.com/query?criteria=Atlanta%2C+GA,2026-04-05,2026-04-05,GA,Douglasville,33.803706,-84.833539,,,GA17137
2026-04-05,AMH,"Atlanta, GA","3701 Tate Place, Austell, GA, 30106","Atlanta, GA",AMH-GA14995,5,3.0,2074,2360.0,2026-04-15,12 months,True,soft,"Special security deposit offer: Pay just 50% of your base rent as your security deposit (taxes and fees not included), valid for new applicants who sign a 12-month lease by April 30, 2026",,,,,,https://www.amh.com/query?criteria=Atlanta%2C+GA,2026-04-05,2026-04-05,GA,Austell,33.807104,-84.662404,,,GA14995
2026-04-05,AMH,"Atlanta, GA","3094 Perch Overlook, Marietta, GA, 30060","Atlanta, GA",AMH-GA16952,3,2.5,1900,2160.0,2026-04-15,12 months,True,soft,"Special security deposit offer: Pay just 50% of your base rent as your security deposit (taxes and fees not included), valid for new applicants who sign a 12-month lease by April 30, 2026",,,,,,https://www.amh.com/query?criteria=Atlanta%2C+GA,2026-04-05,2026-04-05,GA,Marietta,33.877689,-84.619414,,,GA16952
2026-04-05,AMH,"Atlanta, GA","881 Headland Way, Canton, GA, 30114","Atlanta, GA",AMH-GA19793,4,2.5,2098,2500.0,2026-05-16,12 months,True,soft,"Special security deposit offer: Pay just 50% of your base rent as your security deposit (taxes and fees not included), valid for new applicants who sign a 12-month lease by April 30, 2026",,,,,,https://www.amh.com/query?criteria=Atlanta%2C+GA,2026-04-05,2026-04-05,GA,Canton,34.263995,-84.458849,,,GA19793
2026-04-05,AMH,"Atlanta, GA","602 Lake Vista Court, Loganville, GA, 30052","Atlanta, GA",AMH-GA17657,3,2.5,2040,2350.0,2026-04-06,12 months,True,soft,"Special security deposit offer: Pay just 50% of your base rent as your security deposit (taxes and fees not included), valid for new applicants who sign a 12-month lease by April 30, 2026",,,,,,https://www.amh.com/query?criteria=Atlanta%2C+GA,2026-04-05,2026-04-05,GA,Loganville,33.851242,-83.881739,,,GA17657
2026-04-05,AMH,"Atlanta, GA","344 Macroom Court, Loganville, GA, 30052","Atlanta, GA",AMH-GA16893,4,3.5,2489,2370.0,2026-05-29,12 months,True,soft,"Special security deposit offer: Pay just 50% of your base rent as your security deposit (taxes and fees not included), valid for new applicants who sign a 12-month lease by April 30, 2026",,,,,,https://www.amh.com/query?criteria=Atlanta%2C+GA,2026-04-05,2026-04-05,GA,Loganville,33.857362,-83.929106,,,GA16893
2026-04-05,AMH,"Atlanta, GA","589 Summit View Lane, Canton, GA, 30114","Atlanta, GA",AMH-GA19655,4,2.5,2098,2555.0,2026-05-26,12 months,True,soft,"Special security deposit offer: Pay just 50% of your base rent as your security deposit (taxes and fees not included), valid for new applicants who sign a 12-month lease by April 30, 2026",,,,,,https://www.amh.com/query?criteria=Atlanta%2C+GA,2026-04-05,2026-04-05,GA,Canton,34.265585,-84.459027,,,GA19655
